[
    {
        "businessId": "XsXLVWr1UZWVhKThNvNiaA",
        "name": "Blue Willow \u591c\u6765\u6e58",
        "address": "40 W 56th St New York, NY 10019",
        "coordinates": {
            "latitude": 40.76292,
            "longitude": -73.976546
        },
        "numReviews": 1506,
        "rating": 4.4,
        "zipCode": "10019",
        "insertedAtTimestamp": "2026-02-14T03:29:42.008811"
    },
    {
        "businessId": "Y5TqZhNxPC6BWnM7zsCSjA",
        "name": "Din Tai Fung",
        "address": "1633 Broadway New York, NY 10022",
        "coordinates": {
            "latitude": 40.7621134737354,
            "longitude": -73.9840022349182
        },
        "numReviews": 2466,
        "rating": 4.3,
        "zipCode": "10022",
        "insertedAtTimestamp": "2026-02-14T03:29:42.008811"
    },
    {
        "businessId": "lynQoI3w_pzYfHGeuUU-Qg",
        "name": "Shu Jiao Fu Zhou",
        "address": "295 Grand St New York, NY 10002",
        "coordinates": {
            "latitude": 40.7174109,
            "longitude": -73.99208827387251
        },
        "numReviews": 1689,
        "rating": 4.5,
        "zipCode": "10002",
        "insertedAtTimestamp": "2026-02-14T03:29:42.008811"
    },
    {
        "businessId": "0CjK3esfpFcxIopebzjFxA",
        "name": "Joe's Shanghai",
        "address": "46 Bowery St New York, NY 10013",
        "coordinates": {
            "latitude": 40.7156608,
            "longitude": -73.9967012
        },
        "numReviews": 7647,
        "rating": 3.8,
        "zipCode": "10013",
        "insertedAtTimestamp": "2026-02-14T03:29:42.008811"
    },
    {
        "businessId": "X8ZS-dgiMIJvhwf9SaDnjw",
        "name": "Wah Fung No 1",
        "address": "79 Chrystie St New York, NY 10002",
        "coordinates": {
            "latitude": 40.71735,
            "longitude": -73.99457
        },
        "numReviews": 2402,
        "rating": 4.4,
        "zipCode": "10002",
        "insertedAtTimestamp": "2026-02-14T03:29:42.008811"
    },
    {
        "businessId": "8YWLuLUKj0t_0_Xv06UUtw",
        "name": "Ye's Apothecary",
        "address": "119 Orchard St New York, NY 10002",
        "coordinates": {
            "latitude": 40.71945,
            "longitude": -73.9898
        },
        "numReviews": 1051,
        "rating": 4.6,
        "zipCode": "10002",
        "insertedAtTimestamp": "2026-02-14T03:29:42.008811"
    },
    {
        "businessId": "wfhMIiMh2A2psCGONOVSlg",
        "name": "Han Dynasty",
        "address": "90 3rd Ave New York, NY 10003",
        "coordinates": {
            "latitude": 40.732072,
            "longitude": -73.988074
        },
        "numReviews": 1438,
        "rating": 3.9,
        "zipCode": "10003",
        "insertedAtTimestamp": "2026-02-14T03:29:42.008811"
    },
    {
        "businessId": "fupW5th9P2e1lKFosY5Z8Q",
        "name": "Mountain House",
        "address": "353 W 46th St New York, NY 10036",
        "coordinates": {
            "latitude": 40.76080344265001,
            "longitude": -73.98975277116382
        },
        "numReviews": 83,
        "rating": 4.6,
        "zipCode": "10036",
        "insertedAtTimestamp": "2026-02-14T03:29:42.008811"
    },
    {
        "businessId": "E_Rxnmim6J2ECFtU0QGlsQ",
        "name": "Uncle Lou \u5feb\u6a02\u4eba",
        "address": "73 Mulberry St New York, NY 10013",
        "coordinates": {
            "latitude": 40.716284,
            "longitude": -73.99939
        },
        "numReviews": 651,
        "rating": 4.2,
        "zipCode": "10013",
        "insertedAtTimestamp": "2026-02-14T03:29:42.008811"
    },
    {
        "businessId": "WVsPyl-DGRu0O_rQYdIMVQ",
        "name": "The Best Sichuan",
        "address": "47 W 39th St New York, NY 10018",
        "coordinates": {
            "latitude": 40.75277108646358,
            "longitude": -73.9845295
        },
        "numReviews": 283,
        "rating": 4.3,
        "zipCode": "10018",
        "insertedAtTimestamp": "2026-02-14T03:29:42.008811"
    },
    {
        "businessId": "h0pRCiJDrCN7tm3VX5tILQ",
        "name": "CHILI",
        "address": "13 E 37th St New York, NY 10016",
        "coordinates": {
            "latitude": 40.75002,
            "longitude": -73.98215
        },
        "numReviews": 969,
        "rating": 4.6,
        "zipCode": "10016",
        "insertedAtTimestamp": "2026-02-14T03:29:42.008811"
    },
    {
        "businessId": "0dDCDQz7DrKkSvu9h2hcQw",
        "name": "Chow House \u5fb7\u60a6\u8f69",
        "address": "181 Bleecker St New York, NY 10012",
        "coordinates": {
            "latitude": 40.72908,
            "longitude": -74.00078
        },
        "numReviews": 829,
        "rating": 4.4,
        "zipCode": "10012",
        "insertedAtTimestamp": "2026-02-14T03:29:42.008811"
    },
    {
        "businessId": "GuzlMBKNoClNx5I1-x-DDg",
        "name": "53 NYC",
        "address": "53 W 53rd St New York, NY 10019",
        "coordinates": {
            "latitude": 40.76179318437133,
            "longitude": -73.9780863
        },
        "numReviews": 229,
        "rating": 4.1,
        "zipCode": "10019",
        "insertedAtTimestamp": "2026-02-14T03:29:42.008811"
    },
    {
        "businessId": "83zDAk03lFXkgImgkLhT9w",
        "name": "Chi Restaurant & Bar",
        "address": "492 9th Ave New York, NY 10018",
        "coordinates": {
            "latitude": 40.75547,
            "longitude": -73.99439
        },
        "numReviews": 623,
        "rating": 4.6,
        "zipCode": "10018",
        "insertedAtTimestamp": "2026-02-14T03:29:42.008811"
    },
    {
        "businessId": "nI1UYDCYUTt23TpGxqnLKg",
        "name": "Buddakan",
        "address": "75 9th Ave New York, NY 10011",
        "coordinates": {
            "latitude": 40.74221225340447,
            "longitude": -74.00469414889812
        },
        "numReviews": 4898,
        "rating": 4.1,
        "zipCode": "10011",
        "insertedAtTimestamp": "2026-02-14T03:29:42.008811"
    },
    {
        "businessId": "HScFap2SwbUlfC-QXVkxFA",
        "name": "Xi'an Famous Foods",
        "address": "60 W 45th St New York, NY 10036",
        "coordinates": {
            "latitude": 40.75632658419739,
            "longitude": -73.98187471577259
        },
        "numReviews": 1817,
        "rating": 4.0,
        "zipCode": "10036",
        "insertedAtTimestamp": "2026-02-14T03:29:42.008811"
    },
    {
        "businessId": "ojbH3wnRu050hRhkmoxRiA",
        "name": "Han Dynasty",
        "address": "215 W 85th St New York, NY 10024",
        "coordinates": {
            "latitude": 40.7875329540021,
            "longitude": -73.97638356686477
        },
        "numReviews": 783,
        "rating": 3.8,
        "zipCode": "10024",
        "insertedAtTimestamp": "2026-02-14T03:29:42.008811"
    },
    {
        "businessId": "sRWRA4dcN_NR1JGpuRVouA",
        "name": "Nan Xiang Soup Dumplings - Koreatown",
        "address": "24 W 33rd St New York, NY 10001",
        "coordinates": {
            "latitude": 40.7482487159912,
            "longitude": -73.98648243619347
        },
        "numReviews": 1509,
        "rating": 4.6,
        "zipCode": "10001",
        "insertedAtTimestamp": "2026-02-14T03:29:42.008811"
    },
    {
        "businessId": "bVkjBJlAIwKAj9Aw1KVWjA",
        "name": "Dim Sum Palace",
        "address": "334 W 46th St New York, NY 10036",
        "coordinates": {
            "latitude": 40.76015,
            "longitude": -73.9893699
        },
        "numReviews": 1918,
        "rating": 4.1,
        "zipCode": "10036",
        "insertedAtTimestamp": "2026-02-14T03:29:42.008811"
    },
    {
        "businessId": "mK-Mnbf5bCk5Of6_yZt3jg",
        "name": "Floral \u7e41\u82b1",
        "address": "63 Cooper Sq New York, NY 10003",
        "coordinates": {
            "latitude": 40.72907,
            "longitude": -73.98991
        },
        "numReviews": 16,
        "rating": 4.1,
        "zipCode": "10003",
        "insertedAtTimestamp": "2026-02-14T03:29:42.008811"
    },
    {
        "businessId": "aWkekCYI9zNA6xDwYEtYpg",
        "name": "Golden Wuish The Duck House",
        "address": "6 Platt St New York, NY 10038",
        "coordinates": {
            "latitude": 40.707324,
            "longitude": -74.006407
        },
        "numReviews": 260,
        "rating": 4.3,
        "zipCode": "10038",
        "insertedAtTimestamp": "2026-02-14T03:29:42.008811"
    },
    {
        "businessId": "xq0cX_DgxiJMXwhmEl9kUA",
        "name": "Caf\u00e9 China",
        "address": "59 W 37th St New York, NY 10018",
        "coordinates": {
            "latitude": 40.75158498670787,
            "longitude": -73.98582411501887
        },
        "numReviews": 2096,
        "rating": 3.9,
        "zipCode": "10018",
        "insertedAtTimestamp": "2026-02-14T03:29:42.008811"
    },
    {
        "businessId": "tFAozE7NNbypnrr5zEt0bQ",
        "name": "Dim Sum Palace",
        "address": "27 Division St New York, NY 10002",
        "coordinates": {
            "latitude": 40.714018,
            "longitude": -73.996122
        },
        "numReviews": 233,
        "rating": 4.2,
        "zipCode": "10002",
        "insertedAtTimestamp": "2026-02-14T03:29:42.008811"
    },
    {
        "businessId": "UK1oGbr8GU2rufpnJR4-HQ",
        "name": "Joe's Home of Soup Dumplings",
        "address": "7 E 48th St between Fifth and Madison avenues New York, NY 10017",
        "coordinates": {
            "latitude": 40.75723,
            "longitude": -73.97702
        },
        "numReviews": 857,
        "rating": 4.5,
        "zipCode": "10017",
        "insertedAtTimestamp": "2026-02-14T03:29:42.008811"
    },
    {
        "businessId": "oJ6fy4fBv_3WskxH4NfNBg",
        "name": "Chef Huang Jian Bing & Peking Duck",
        "address": "635 2nd Ave New York, NY 10016",
        "coordinates": {
            "latitude": 40.745337,
            "longitude": -73.975813
        },
        "numReviews": 152,
        "rating": 4.5,
        "zipCode": "10016",
        "insertedAtTimestamp": "2026-02-14T03:29:42.008811"
    },
    {
        "businessId": "KOg9x0nxrgn2EmfUpI10Fw",
        "name": "Yingtao",
        "address": "805 9th Ave New York, NY 10019",
        "coordinates": {
            "latitude": 40.765730411583846,
            "longitude": -73.98772763947743
        },
        "numReviews": 62,
        "rating": 4.4,
        "zipCode": "10019",
        "insertedAtTimestamp": "2026-02-14T03:29:42.008811"
    },
    {
        "businessId": "qrncvjkiKN5Z-JC06ygy6A",
        "name": "Hutong",
        "address": "731 Lexington Ave New York, NY 10022",
        "coordinates": {
            "latitude": 40.761551,
            "longitude": -73.967443
        },
        "numReviews": 729,
        "rating": 3.7,
        "zipCode": "10022",
        "insertedAtTimestamp": "2026-02-14T03:29:42.008811"
    },
    {
        "businessId": "QlFOpTPMEIQDjrtvs_zKxg",
        "name": "Blue Blossom",
        "address": "108 W 39th St New York, NY 10018",
        "coordinates": {
            "latitude": 40.75304269205817,
            "longitude": -73.98601224110455
        },
        "numReviews": 91,
        "rating": 4.3,
        "zipCode": "10018",
        "insertedAtTimestamp": "2026-02-14T03:29:42.008811"
    },
    {
        "businessId": "wDuf4Qz9qsC62amLZgWNJQ",
        "name": "Little Alley",
        "address": "550 3rd Ave New York, NY 10016",
        "coordinates": {
            "latitude": 40.74744,
            "longitude": -73.97728
        },
        "numReviews": 612,
        "rating": 4.0,
        "zipCode": "10016",
        "insertedAtTimestamp": "2026-02-14T03:29:42.008811"
    },
    {
        "businessId": "oowNI_aUmGEFa_VW8BFgRg",
        "name": "Tri Dim Shanghai",
        "address": "1378 3rd Ave New York, NY 10075",
        "coordinates": {
            "latitude": 40.773951,
            "longitude": -73.957927
        },
        "numReviews": 622,
        "rating": 4.0,
        "zipCode": "10075",
        "insertedAtTimestamp": "2026-02-14T03:29:42.008811"
    },
    {
        "businessId": "LT0yyLNM84EiJj9DL0rfHA",
        "name": "Hui Restaurant & Bar",
        "address": "314 E 70th St New York, NY 10021",
        "coordinates": {
            "latitude": 40.76701,
            "longitude": -73.95846
        },
        "numReviews": 353,
        "rating": 4.3,
        "zipCode": "10021",
        "insertedAtTimestamp": "2026-02-14T03:29:42.008811"
    },
    {
        "businessId": "qGgQMVExGERqGhZNDM2ROg",
        "name": "Wu Liang Ye",
        "address": "36 W 48th St New York, NY 10036",
        "coordinates": {
            "latitude": 40.75781,
            "longitude": -73.97994
        },
        "numReviews": 604,
        "rating": 3.5,
        "zipCode": "10036",
        "insertedAtTimestamp": "2026-02-14T03:29:42.008811"
    },
    {
        "businessId": "-gDpARzzNwy5PoEEYYF4MA",
        "name": "Blue Peak Villa",
        "address": "200 Allen St New York, NY 10002",
        "coordinates": {
            "latitude": 40.722564,
            "longitude": -73.988477
        },
        "numReviews": 12,
        "rating": 4.6,
        "zipCode": "10002",
        "insertedAtTimestamp": "2026-02-14T03:29:42.008811"
    },
    {
        "businessId": "R26zweQ8-xoZS7iHkXQOvw",
        "name": "Shanghai 21",
        "address": "21 Mott St New York, NY 10013",
        "coordinates": {
            "latitude": 40.71441,
            "longitude": -73.99902
        },
        "numReviews": 2134,
        "rating": 4.2,
        "zipCode": "10013",
        "insertedAtTimestamp": "2026-02-14T03:29:42.008811"
    },
    {
        "businessId": "l44CFBTejwL0ElKmkH7xQQ",
        "name": "Decoy",
        "address": "529 Hudson St New York, NY 10014",
        "coordinates": {
            "latitude": 40.73420741827725,
            "longitude": -74.006519
        },
        "numReviews": 458,
        "rating": 4.2,
        "zipCode": "10014",
        "insertedAtTimestamp": "2026-02-14T03:29:42.008811"
    },
    {
        "businessId": "oe8GEFE4QLFAKt87y7zcgA",
        "name": "Very Fresh Noodles",
        "address": "409 W 15th St New York, NY 10011",
        "coordinates": {
            "latitude": 40.742143,
            "longitude": -74.005725
        },
        "numReviews": 1734,
        "rating": 4.4,
        "zipCode": "10011",
        "insertedAtTimestamp": "2026-02-14T03:29:42.008811"
    },
    {
        "businessId": "NN3mOWF5e_pnR1ArqM2bHQ",
        "name": "Obao",
        "address": "647 9th Ave New York, NY 10036",
        "coordinates": {
            "latitude": 40.7606544,
            "longitude": -73.991332
        },
        "numReviews": 4519,
        "rating": 4.0,
        "zipCode": "10036",
        "insertedAtTimestamp": "2026-02-14T03:29:42.008811"
    },
    {
        "businessId": "jc7lVTvmYMIK5RNpENtS6w",
        "name": "Szechuan Mountain House",
        "address": "23 St Marks Pl New York, NY 10003",
        "coordinates": {
            "latitude": 40.72911,
            "longitude": -73.98858
        },
        "numReviews": 890,
        "rating": 4.3,
        "zipCode": "10003",
        "insertedAtTimestamp": "2026-02-14T03:29:42.008811"
    },
    {
        "businessId": "gvOe1TLb8hZgx0naC9LYpw",
        "name": "Sei Less",
        "address": "156 W 38th St New York, NY 10018",
        "coordinates": {
            "latitude": 40.75314,
            "longitude": -73.98814
        },
        "numReviews": 442,
        "rating": 3.9,
        "zipCode": "10018",
        "insertedAtTimestamp": "2026-02-14T03:29:42.008811"
    },
    {
        "businessId": "8XJrpuI6RHMXmjrVzP03dw",
        "name": "Jing Li",
        "address": "27-35 Jackson Ave Long Island city, NY 11101",
        "coordinates": {
            "latitude": 40.74813337129183,
            "longitude": -73.94008809102094
        },
        "numReviews": 158,
        "rating": 4.0,
        "zipCode": "11101",
        "insertedAtTimestamp": "2026-02-14T03:29:42.008811"
    },
    {
        "businessId": "XvSoRKqb1Xzp0uMbBX8GQQ",
        "name": "Easy Joy Dim Sum & AYCE Hot Pot",
        "address": "145 Mulberry St New York, NY 10013",
        "coordinates": {
            "latitude": 40.718959,
            "longitude": -73.99761981165686
        },
        "numReviews": 64,
        "rating": 4.6,
        "zipCode": "10013",
        "insertedAtTimestamp": "2026-02-14T03:29:42.008811"
    },
    {
        "businessId": "_fTRTishY3G5dLPLYGCVAw",
        "name": "Tipsy Shanghai",
        "address": "594 3rd Ave New York, NY 10016",
        "coordinates": {
            "latitude": 40.74879,
            "longitude": -73.9761
        },
        "numReviews": 143,
        "rating": 4.1,
        "zipCode": "10016",
        "insertedAtTimestamp": "2026-02-14T03:29:42.008811"
    },
    {
        "businessId": "M-odQWSEfsR2mVEw7nKG-g",
        "name": "Nyonya",
        "address": "199 Grand St New York, NY 10013",
        "coordinates": {
            "latitude": 40.719116974367,
            "longitude": -73.9968322948353
        },
        "numReviews": 2554,
        "rating": 3.9,
        "zipCode": "10013",
        "insertedAtTimestamp": "2026-02-14T03:29:42.008811"
    },
    {
        "businessId": "1XgqwPF8JN-OVYDaKmO6SQ",
        "name": "Gulp",
        "address": "42-45 27th St Long Island City, NY 11101",
        "coordinates": {
            "latitude": 40.74898633252658,
            "longitude": -73.94065112701773
        },
        "numReviews": 463,
        "rating": 4.8,
        "zipCode": "11101",
        "insertedAtTimestamp": "2026-02-14T03:29:42.008811"
    },
    {
        "businessId": "4FD0TAxe70nb3ngk3sXF9Q",
        "name": "Uluh",
        "address": "152 2nd Ave Ste A New York, NY 10003",
        "coordinates": {
            "latitude": 40.729354,
            "longitude": -73.98665
        },
        "numReviews": 1127,
        "rating": 4.4,
        "zipCode": "10003",
        "insertedAtTimestamp": "2026-02-14T03:29:42.008811"
    },
    {
        "businessId": "rYw5rQbWRX9buZHZbxqWdA",
        "name": "Congee Village",
        "address": "100 Allen St New York, NY 10002",
        "coordinates": {
            "latitude": 40.7187,
            "longitude": -73.99031
        },
        "numReviews": 1908,
        "rating": 3.4,
        "zipCode": "10002",
        "insertedAtTimestamp": "2026-02-14T03:29:42.008811"
    },
    {
        "businessId": "gNGxh97n0NZgYG1Q_no9Kg",
        "name": "Potluck Club \u4f70\u6a02",
        "address": "133 Chrystie St New York, NY 10002",
        "coordinates": {
            "latitude": 40.719588,
            "longitude": -73.993519
        },
        "numReviews": 537,
        "rating": 4.3,
        "zipCode": "10002",
        "insertedAtTimestamp": "2026-02-14T03:29:42.008811"
    },
    {
        "businessId": "l1nX-f46dmOEmYPoiuLSaw",
        "name": "Peking Duck House",
        "address": "236 E 53rd St New York, NY 10022",
        "coordinates": {
            "latitude": 40.756915,
            "longitude": -73.968108
        },
        "numReviews": 582,
        "rating": 3.4,
        "zipCode": "10022",
        "insertedAtTimestamp": "2026-02-14T03:29:42.008811"
    },
    {
        "businessId": "R7EGjHWw0tNheY6-ahH8fQ",
        "name": "Tuome",
        "address": "536 E 5th St New York, NY 10009",
        "coordinates": {
            "latitude": 40.72412482724,
            "longitude": -73.9828906263924
        },
        "numReviews": 757,
        "rating": 4.3,
        "zipCode": "10009",
        "insertedAtTimestamp": "2026-02-14T03:29:42.008811"
    },
    {
        "businessId": "hNFe8WhCibrqT4sFcZmAgw",
        "name": "Kong Sihk Tong \u6e2f\u98df\u5802",
        "address": "65 Bayard St New York, NY 10013",
        "coordinates": {
            "latitude": 40.715433714742154,
            "longitude": -73.9981186386701
        },
        "numReviews": 1039,
        "rating": 4.2,
        "zipCode": "10013",
        "insertedAtTimestamp": "2026-02-14T03:29:42.008811"
    },
    {
        "businessId": "TU_BU9HLflYI2xlyqVQdRA",
        "name": "TAO Uptown",
        "address": "42 E 58th St New York City, NY 10022",
        "coordinates": {
            "latitude": 40.762633905485515,
            "longitude": -73.97143037115184
        },
        "numReviews": 3138,
        "rating": 3.6,
        "zipCode": "10022",
        "insertedAtTimestamp": "2026-02-14T03:29:42.008811"
    },
    {
        "businessId": "4DInnPhOyvXFbYpUdO0SMQ",
        "name": "Antidote",
        "address": "66 S 2nd St Brooklyn, NY 11249",
        "coordinates": {
            "latitude": 40.714186,
            "longitude": -73.965493
        },
        "numReviews": 632,
        "rating": 4.6,
        "zipCode": "11249",
        "insertedAtTimestamp": "2026-02-14T03:29:42.008811"
    },
    {
        "businessId": "Irl5EDZ-wBbb6AsxCjrbQg",
        "name": "Grandma's Home",
        "address": "56 W 22nd St New York, NY 10010",
        "coordinates": {
            "latitude": 40.74185184042206,
            "longitude": -73.9928814
        },
        "numReviews": 143,
        "rating": 4.2,
        "zipCode": "10010",
        "insertedAtTimestamp": "2026-02-14T03:29:42.008811"
    },
    {
        "businessId": "0uxLYjybBFiIjTzyuejpxw",
        "name": "Phoenix Palace",
        "address": "85 Bowery New York, NY 10002",
        "coordinates": {
            "latitude": 40.716824,
            "longitude": -73.995294
        },
        "numReviews": 107,
        "rating": 4.4,
        "zipCode": "10002",
        "insertedAtTimestamp": "2026-02-14T03:29:42.008811"
    },
    {
        "businessId": "6YehBdKHcLDsvaewhcEjFQ",
        "name": "Hey Yuet",
        "address": "251 W 26th St New York, NY 10001",
        "coordinates": {
            "latitude": 40.747241,
            "longitude": -73.996441
        },
        "numReviews": 337,
        "rating": 4.4,
        "zipCode": "10001",
        "insertedAtTimestamp": "2026-02-14T03:29:42.008811"
    },
    {
        "businessId": "sBCJYLPNJuagg-aJ3Y_ozQ",
        "name": "Cheli",
        "address": "19 St Marks Pl New York, NY 10003",
        "coordinates": {
            "latitude": 40.72919825690721,
            "longitude": -73.98871113812073
        },
        "numReviews": 477,
        "rating": 4.2,
        "zipCode": "10003",
        "insertedAtTimestamp": "2026-02-14T03:29:42.008811"
    },
    {
        "businessId": "LTVNsNBh_0FI8MYrPfjRDQ",
        "name": "Jiang Nan - NYC",
        "address": "103 Bowery New York, NY 10002",
        "coordinates": {
            "latitude": 40.717553,
            "longitude": -73.99501
        },
        "numReviews": 318,
        "rating": 4.4,
        "zipCode": "10002",
        "insertedAtTimestamp": "2026-02-14T03:29:42.008811"
    },
    {
        "businessId": "AnViocMdVkG-fEWOD6r_OA",
        "name": "Dong Bei",
        "address": "17 Ann St New York, NY 10038",
        "coordinates": {
            "latitude": 40.71099089543106,
            "longitude": -74.0077426
        },
        "numReviews": 2,
        "rating": 5.0,
        "zipCode": "10038",
        "insertedAtTimestamp": "2026-02-14T03:29:42.008811"
    },
    {
        "businessId": "9U5tPyF6QEiVntlyTemxKA",
        "name": "House of Joy",
        "address": "28 Pell St New York, NY 10013",
        "coordinates": {
            "latitude": 40.71495,
            "longitude": -73.99841
        },
        "numReviews": 530,
        "rating": 4.0,
        "zipCode": "10013",
        "insertedAtTimestamp": "2026-02-14T03:29:42.008811"
    },
    {
        "businessId": "rZTC2nLbrOUfy9bKvhXnuw",
        "name": "By Antidote",
        "address": "30 E 20th St New York, NY 10003",
        "coordinates": {
            "latitude": 40.738609837812,
            "longitude": -73.9886551
        },
        "numReviews": 28,
        "rating": 4.5,
        "zipCode": "10003",
        "insertedAtTimestamp": "2026-02-14T03:29:42.008811"
    },
    {
        "businessId": "Jghofss7sIseYyJrxxn0zg",
        "name": "Chubby Skewers ",
        "address": "252 W 37th St New York, NY 10018",
        "coordinates": {
            "latitude": 40.753584,
            "longitude": -73.991445
        },
        "numReviews": 245,
        "rating": 4.4,
        "zipCode": "10018",
        "insertedAtTimestamp": "2026-02-14T03:29:42.008811"
    },
    {
        "businessId": "mUl0wtO7tPkBocuJqZ-7Dw",
        "name": "Dun Huang",
        "address": "320 Lexington Ave New York, NY 10016",
        "coordinates": {
            "latitude": 40.749246028789145,
            "longitude": -73.97784435752833
        },
        "numReviews": 385,
        "rating": 4.3,
        "zipCode": "10016",
        "insertedAtTimestamp": "2026-02-14T03:29:42.008811"
    },
    {
        "businessId": "LQHegfNHe7ylY3bocrFlpg",
        "name": "Calle Dao - Bryant Park",
        "address": "38 W 39th St New York, NY 10018",
        "coordinates": {
            "latitude": 40.752151,
            "longitude": -73.98422
        },
        "numReviews": 2115,
        "rating": 4.2,
        "zipCode": "10018",
        "insertedAtTimestamp": "2026-02-14T03:29:42.008811"
    },
    {
        "businessId": "Puyzn1gagH9TsJz7EBJs3g",
        "name": "Baji Baji",
        "address": "145 1st Ave New York, NY 10003",
        "coordinates": {
            "latitude": 40.72821421354205,
            "longitude": -73.98516918819301
        },
        "numReviews": 97,
        "rating": 4.3,
        "zipCode": "10003",
        "insertedAtTimestamp": "2026-02-14T03:29:42.008811"
    },
    {
        "businessId": "Lp8vAE5nHSt5zbu-lSGK8A",
        "name": "Hop Lee Restaurant",
        "address": "16 Mott St New York, NY 10013",
        "coordinates": {
            "latitude": 40.71422,
            "longitude": -73.99864
        },
        "numReviews": 428,
        "rating": 3.9,
        "zipCode": "10013",
        "insertedAtTimestamp": "2026-02-14T03:29:42.008811"
    },
    {
        "businessId": "iSjPBJRiWqrgxW7ZM3CGig",
        "name": "Birds of a Feather",
        "address": "191 Grand St Brooklyn, NY 11211",
        "coordinates": {
            "latitude": 40.71442,
            "longitude": -73.960441
        },
        "numReviews": 769,
        "rating": 4.2,
        "zipCode": "11211",
        "insertedAtTimestamp": "2026-02-14T03:29:42.008811"
    },
    {
        "businessId": "s5JNxy0eAFgxS2Poi73ODw",
        "name": "Mala Project",
        "address": "41 W 46th St New York, NY 10036",
        "coordinates": {
            "latitude": 40.756899,
            "longitude": -73.980586
        },
        "numReviews": 653,
        "rating": 4.0,
        "zipCode": "10036",
        "insertedAtTimestamp": "2026-02-14T03:29:42.008811"
    },
    {
        "businessId": "W1VceP79ofBePm3izXJC4A",
        "name": "Wok In Duane",
        "address": "181 Duane St New York, NY 10013",
        "coordinates": {
            "latitude": 40.7175611,
            "longitude": -74.01016130539362
        },
        "numReviews": 26,
        "rating": 4.9,
        "zipCode": "10013",
        "insertedAtTimestamp": "2026-02-14T03:29:42.008811"
    },
    {
        "businessId": "H1jops1lmuhrq9lP7lEGJQ",
        "name": "Flor De Mayo",
        "address": "484 Amsterdam Ave New York, NY 10024",
        "coordinates": {
            "latitude": 40.78609,
            "longitude": -73.97658
        },
        "numReviews": 1410,
        "rating": 4.0,
        "zipCode": "10024",
        "insertedAtTimestamp": "2026-02-14T03:29:42.008811"
    },
    {
        "businessId": "qEe7nIhPfEL6L0-VYhWRrA",
        "name": "Raku",
        "address": "48 Macdougal St New York, NY 10012",
        "coordinates": {
            "latitude": 40.7272479,
            "longitude": -74.00253944171621
        },
        "numReviews": 1155,
        "rating": 4.5,
        "zipCode": "10012",
        "insertedAtTimestamp": "2026-02-14T03:29:42.008811"
    },
    {
        "businessId": "vZgJyMZlpSSS_Y-duxd4_A",
        "name": "Kings Co Imperial",
        "address": "20 Skillman Ave Brooklyn, NY 11211",
        "coordinates": {
            "latitude": 40.71512,
            "longitude": -73.95097
        },
        "numReviews": 449,
        "rating": 4.0,
        "zipCode": "11211",
        "insertedAtTimestamp": "2026-02-14T03:29:42.008811"
    },
    {
        "businessId": "HR_a2QSA_KJZIakufAJUmg",
        "name": "Szechuan Gourmet",
        "address": "21 W 39th St New York, NY 10018",
        "coordinates": {
            "latitude": 40.752347,
            "longitude": -73.983559
        },
        "numReviews": 112,
        "rating": 4.2,
        "zipCode": "10018",
        "insertedAtTimestamp": "2026-02-14T03:29:42.008811"
    },
    {
        "businessId": "bnDfFdiCcPzhuNWUJORvLQ",
        "name": "Noodle Village",
        "address": "70 Mott St New York, NY 10013",
        "coordinates": {
            "latitude": 40.71624115699229,
            "longitude": -73.99797251027432
        },
        "numReviews": 1564,
        "rating": 3.9,
        "zipCode": "10013",
        "insertedAtTimestamp": "2026-02-14T03:29:42.008811"
    },
    {
        "businessId": "6dVXDdgzDEVt4DvHzpWo9w",
        "name": "Tang Pavilion",
        "address": "65 W 55th St New York, NY 10019",
        "coordinates": {
            "latitude": 40.76275,
            "longitude": -73.97725
        },
        "numReviews": 376,
        "rating": 3.5,
        "zipCode": "10019",
        "insertedAtTimestamp": "2026-02-14T03:29:42.008811"
    },
    {
        "businessId": "qVrbv-z4dDtAVUjLtSgJqg",
        "name": "Shoo Loong Kan",
        "address": "22 E 13th St New York, NY 10003",
        "coordinates": {
            "latitude": 40.734743,
            "longitude": -73.99311
        },
        "numReviews": 36,
        "rating": 4.6,
        "zipCode": "10003",
        "insertedAtTimestamp": "2026-02-14T03:29:42.008811"
    },
    {
        "businessId": "PGeL1b4xNJggpZsHEGoxjg",
        "name": "Mr Chow",
        "address": "121 Hudson St New York, NY 10013",
        "coordinates": {
            "latitude": 40.72032671715995,
            "longitude": -74.00874742842026
        },
        "numReviews": 483,
        "rating": 2.9,
        "zipCode": "10013",
        "insertedAtTimestamp": "2026-02-14T03:29:42.008811"
    },
    {
        "businessId": "LVkBYW-FNaZ2h-0zB8-vzA",
        "name": "Jiang's Kitchen",
        "address": "65 St Marks Pl New York, NY 10003",
        "coordinates": {
            "latitude": 40.72808,
            "longitude": -73.98615
        },
        "numReviews": 119,
        "rating": 4.4,
        "zipCode": "10003",
        "insertedAtTimestamp": "2026-02-14T03:29:42.008811"
    },
    {
        "businessId": "yRhztSpaiNV1ZIb1S03DAw",
        "name": "MEILI",
        "address": "160 N 12th St Brooklyn, NY 11249",
        "coordinates": {
            "latitude": 40.72089498332752,
            "longitude": -73.9555685
        },
        "numReviews": 40,
        "rating": 4.6,
        "zipCode": "11249",
        "insertedAtTimestamp": "2026-02-14T03:29:42.008811"
    },
    {
        "businessId": "IsL7iowOZXZ5i8G5RgQgRA",
        "name": "Dim Sum Palace",
        "address": "123 William St New York, NY 10038",
        "coordinates": {
            "latitude": 40.70922,
            "longitude": -74.00689
        },
        "numReviews": 104,
        "rating": 4.0,
        "zipCode": "10038",
        "insertedAtTimestamp": "2026-02-14T03:29:42.008811"
    },
    {
        "businessId": "bSi2f2TaOr4RVTI5eFt0wQ",
        "name": "Taste Of North China",
        "address": "75 Montgomery St Jersey City, NJ 07302",
        "coordinates": {
            "latitude": 40.7167868,
            "longitude": -74.0377625661521
        },
        "numReviews": 327,
        "rating": 3.1,
        "zipCode": "07302",
        "insertedAtTimestamp": "2026-02-14T03:29:42.008811"
    },
    {
        "businessId": "9-vKFnUby_6-pR6UJxjzMw",
        "name": "Sun Hing Lung ",
        "address": "58 Henry St New York, NY 10002",
        "coordinates": {
            "latitude": 40.7127362,
            "longitude": -73.9950764600962
        },
        "numReviews": 338,
        "rating": 4.4,
        "zipCode": "10002",
        "insertedAtTimestamp": "2026-02-14T03:29:42.008811"
    },
    {
        "businessId": "FXhSEZfIqjMZh4hR0_8jMQ",
        "name": "China Xiang \u4e2d\u56fd\u6e58",
        "address": "360 W 42nd Street New York, NY 10036",
        "coordinates": {
            "latitude": 40.7582902125633,
            "longitude": -73.9925113993899
        },
        "numReviews": 591,
        "rating": 3.8,
        "zipCode": "10036",
        "insertedAtTimestamp": "2026-02-14T03:29:42.008811"
    },
    {
        "businessId": "Q85ScF9s6vlS5_i453AFvg",
        "name": "Tangy Noodle",
        "address": "98 8th Ave New York, NY 10011",
        "coordinates": {
            "latitude": 40.740203,
            "longitude": -74.00193
        },
        "numReviews": 149,
        "rating": 4.3,
        "zipCode": "10011",
        "insertedAtTimestamp": "2026-02-14T03:29:42.008811"
    },
    {
        "businessId": "uhhOOprg9LqysXuQpm9H0Q",
        "name": "iDen & Quanjude Beijing Duck House",
        "address": "3 East 52nd St New York, NY 10022",
        "coordinates": {
            "latitude": 40.7596356,
            "longitude": -73.9756795
        },
        "numReviews": 27,
        "rating": 3.4,
        "zipCode": "10022",
        "insertedAtTimestamp": "2026-02-14T03:29:42.008811"
    },
    {
        "businessId": "vA2VEhW6S1ioX6tXtQdO9A",
        "name": "Lemongrass Brooklyn",
        "address": "156 Court St Brooklyn, NY 11201",
        "coordinates": {
            "latitude": 40.688684,
            "longitude": -73.993137
        },
        "numReviews": 1655,
        "rating": 4.3,
        "zipCode": "11201",
        "insertedAtTimestamp": "2026-02-14T03:29:42.008811"
    },
    {
        "businessId": "FQi7AP2j9UYc1c-VTF00rA",
        "name": "Wok In The Clouds",
        "address": "127 E 28th St New York, NY 10016",
        "coordinates": {
            "latitude": 40.7429,
            "longitude": -73.9828
        },
        "numReviews": 45,
        "rating": 4.5,
        "zipCode": "10016",
        "insertedAtTimestamp": "2026-02-14T03:29:42.008811"
    },
    {
        "businessId": "1DFnZCvMfuZQ7G_u0v7meQ",
        "name": "Fan Szechuan",
        "address": "103 Essex St New York, NY 10002",
        "coordinates": {
            "latitude": 40.719113,
            "longitude": -73.988234
        },
        "numReviews": 55,
        "rating": 4.6,
        "zipCode": "10002",
        "insertedAtTimestamp": "2026-02-14T03:29:42.008811"
    },
    {
        "businessId": "VHNgCSoS5d_8NcXJZU-W-Q",
        "name": "Yunnan Rice Noodle House",
        "address": "274 Grand St New York, NY 10002",
        "coordinates": {
            "latitude": 40.717955217774175,
            "longitude": -73.99280700148306
        },
        "numReviews": 40,
        "rating": 4.4,
        "zipCode": "10002",
        "insertedAtTimestamp": "2026-02-14T03:29:42.008811"
    },
    {
        "businessId": "GAFqRBlqZpLK2vYbiqzYhA",
        "name": "Peppercorn Station",
        "address": "66 W 39th St New York, NY 10018",
        "coordinates": {
            "latitude": 40.75266,
            "longitude": -73.985145
        },
        "numReviews": 159,
        "rating": 4.2,
        "zipCode": "10018",
        "insertedAtTimestamp": "2026-02-14T03:29:42.008811"
    },
    {
        "businessId": "IuBPtv_n4yZwgpjf0xz37g",
        "name": "Schuan kitchen",
        "address": "302 New Dorp Ln Staten Island, NY 10306",
        "coordinates": {
            "latitude": 40.57172746169925,
            "longitude": -74.1125029
        },
        "numReviews": 5,
        "rating": 5.0,
        "zipCode": "10306",
        "insertedAtTimestamp": "2026-02-14T03:29:42.008811"
    },
    {
        "businessId": "wDRLt6PGGH1kdEiDEd0B7w",
        "name": "Ming Mun",
        "address": "196 Smith St Fl G Brooklyn, NY 11201",
        "coordinates": {
            "latitude": 40.685102522331945,
            "longitude": -73.9917756
        },
        "numReviews": 24,
        "rating": 4.4,
        "zipCode": "11201",
        "insertedAtTimestamp": "2026-02-14T03:29:42.008811"
    },
    {
        "businessId": "wRCtNWi6QSjhxYVqSh3j4A",
        "name": "Shanghai time",
        "address": "273 W 38th St New York, NY 10018",
        "coordinates": {
            "latitude": 40.754645,
            "longitude": -73.991169
        },
        "numReviews": 150,
        "rating": 4.2,
        "zipCode": "10018",
        "insertedAtTimestamp": "2026-02-14T03:29:42.008811"
    },
    {
        "businessId": "pVlKM-vyOJxfoJ9fwMDDfA",
        "name": "Sky Pavilion",
        "address": "325 W 42nd St New York, NY 10036",
        "coordinates": {
            "latitude": 40.757968,
            "longitude": -73.990862
        },
        "numReviews": 106,
        "rating": 4.7,
        "zipCode": "10036",
        "insertedAtTimestamp": "2026-02-14T03:29:42.008811"
    },
    {
        "businessId": "jjJc_CrkB2HodEinB6cWww",
        "name": "LoveMama",
        "address": "174 2nd Ave New York, NY 10003",
        "coordinates": {
            "latitude": 40.730387,
            "longitude": -73.986093
        },
        "numReviews": 7045,
        "rating": 4.4,
        "zipCode": "10003",
        "insertedAtTimestamp": "2026-02-14T03:29:42.008811"
    },
    {
        "businessId": "DpfE0gPBXj-aj2pnEh4E2Q",
        "name": "Wei Williamsburg",
        "address": "145 Borinquen Pl Brooklyn, NY 11211",
        "coordinates": {
            "latitude": 40.7107868,
            "longitude": -73.9542168
        },
        "numReviews": 286,
        "rating": 3.8,
        "zipCode": "11211",
        "insertedAtTimestamp": "2026-02-14T03:29:42.008811"
    },
    {
        "businessId": "LNx49p5HYVc01rKnkfKkFg",
        "name": "Super Taste",
        "address": "1502 1st Ave New York, NY 10075",
        "coordinates": {
            "latitude": 40.771858,
            "longitude": -73.952783
        },
        "numReviews": 83,
        "rating": 4.5,
        "zipCode": "10075",
        "insertedAtTimestamp": "2026-02-14T03:29:42.008811"
    },
    {
        "businessId": "iu1TLnNH13AdBDg_LmnuHQ",
        "name": "Lunar",
        "address": "12 E 37th St New York, NY 10016",
        "coordinates": {
            "latitude": 40.74981466503257,
            "longitude": -73.98231633276964
        },
        "numReviews": 83,
        "rating": 4.2,
        "zipCode": "10016",
        "insertedAtTimestamp": "2026-02-14T03:29:42.008811"
    },
    {
        "businessId": "pCfGgX0WxGASGM4-Yhr2Pw",
        "name": "Hao Noodle Chelsea",
        "address": "343 W 14th St New York, NY 10014",
        "coordinates": {
            "latitude": 40.7408,
            "longitude": -74.00429
        },
        "numReviews": 744,
        "rating": 4.3,
        "zipCode": "10014",
        "insertedAtTimestamp": "2026-02-14T03:29:42.008811"
    },
    {
        "businessId": "3gqKLANaXNsHZnPDjKrcTg",
        "name": "Win Son",
        "address": "159 Graham Ave Brooklyn, NY 11206",
        "coordinates": {
            "latitude": 40.70747,
            "longitude": -73.94339
        },
        "numReviews": 858,
        "rating": 4.2,
        "zipCode": "11206",
        "insertedAtTimestamp": "2026-02-14T03:29:42.008811"
    },
    {
        "businessId": "zubN8Ve-RyoljRZV4NRxEQ",
        "name": "Wo Hop",
        "address": "17 Mott St New York, NY 10013",
        "coordinates": {
            "latitude": 40.71428582832716,
            "longitude": -73.99892167384314
        },
        "numReviews": 1989,
        "rating": 3.8,
        "zipCode": "10013",
        "insertedAtTimestamp": "2026-02-14T03:29:42.008811"
    },
    {
        "businessId": "DIwe3i_-OkvfKAHrNDGtSw",
        "name": "Red Sorghum \u591c\u5bb4",
        "address": "28-03 Jackson Ave Long Island City, NY 11101",
        "coordinates": {
            "latitude": 40.74860457951211,
            "longitude": -73.93912612152317
        },
        "numReviews": 262,
        "rating": 4.3,
        "zipCode": "11101",
        "insertedAtTimestamp": "2026-02-14T03:29:42.008811"
    },
    {
        "businessId": "U3j9A9PV4hBbqTkbtChE-w",
        "name": "Yao",
        "address": "213 Pearl St New York, NY 10038",
        "coordinates": {
            "latitude": 40.70715,
            "longitude": -74.00642
        },
        "numReviews": 58,
        "rating": 4.2,
        "zipCode": "10038",
        "insertedAtTimestamp": "2026-02-14T03:29:42.008811"
    },
    {
        "businessId": "XmA6dG--QxGgfsdmWrL3sw",
        "name": "Dong Bei",
        "address": "367 W 36th St New York, NY 10018",
        "coordinates": {
            "latitude": 40.7546,
            "longitude": -73.99493
        },
        "numReviews": 35,
        "rating": 4.2,
        "zipCode": "10018",
        "insertedAtTimestamp": "2026-02-14T03:29:42.008811"
    },
    {
        "businessId": "ycaOcLWT4u4IMHljEoGdFw",
        "name": "Yumpling",
        "address": "16 E 52nd St New York, NY 10022",
        "coordinates": {
            "latitude": 40.75919772971987,
            "longitude": -73.9754350148354
        },
        "numReviews": 58,
        "rating": 4.7,
        "zipCode": "10022",
        "insertedAtTimestamp": "2026-02-14T03:29:42.008811"
    },
    {
        "businessId": "hRwgcDxPjSTcw8zIMe998g",
        "name": "Chi Chicken",
        "address": "42- 59 Hunter St Long Island City, NY 11101",
        "coordinates": {
            "latitude": 40.748743259808165,
            "longitude": -73.94000469731343
        },
        "numReviews": 69,
        "rating": 4.6,
        "zipCode": "11101",
        "insertedAtTimestamp": "2026-02-14T03:29:42.008811"
    },
    {
        "businessId": "Kqb7MjTPNkjPMoFRd-rWpw",
        "name": "M\u00e1L\u00e0 Project",
        "address": "122 1st Ave New York, NY 10009",
        "coordinates": {
            "latitude": 40.72714681219886,
            "longitude": -73.98541890324336
        },
        "numReviews": 994,
        "rating": 4.2,
        "zipCode": "10009",
        "insertedAtTimestamp": "2026-02-14T03:29:42.008811"
    },
    {
        "businessId": "aU3EPA1W-u_WAcwD4ZnOQQ",
        "name": "King\u2019s Kitchen",
        "address": "58 Mott St New York, NY 10013",
        "coordinates": {
            "latitude": 40.71587690618806,
            "longitude": -73.99817771165856
        },
        "numReviews": 51,
        "rating": 4.1,
        "zipCode": "10013",
        "insertedAtTimestamp": "2026-02-14T03:29:42.008811"
    },
    {
        "businessId": "Q1TpfbuPwKPFrNFyu-u2_g",
        "name": "Han Dynasty",
        "address": "1 Dekalb Ave Brooklyn, NY 11201",
        "coordinates": {
            "latitude": 40.69128889156491,
            "longitude": -73.98261035889554
        },
        "numReviews": 504,
        "rating": 3.7,
        "zipCode": "11201",
        "insertedAtTimestamp": "2026-02-14T03:29:42.008811"
    },
    {
        "businessId": "C3tP0fNNAoxOAC3O406CXQ",
        "name": "Le Sia",
        "address": "651 9th Ave New York, NY 10036",
        "coordinates": {
            "latitude": 40.76072,
            "longitude": -73.99119
        },
        "numReviews": 173,
        "rating": 4.3,
        "zipCode": "10036",
        "insertedAtTimestamp": "2026-02-14T03:29:42.008811"
    },
    {
        "businessId": "B7bxdtvLYR7Nmex4AIFd4w",
        "name": "RedFarm",
        "address": "2170 Broadway New York, NY 10024",
        "coordinates": {
            "latitude": 40.782051,
            "longitude": -73.980415
        },
        "numReviews": 846,
        "rating": 3.6,
        "zipCode": "10024",
        "insertedAtTimestamp": "2026-02-14T03:29:42.008811"
    },
    {
        "businessId": "KWx3SvW16hfSiFOAd4WzTA",
        "name": "1915 Lanzhou Hand Pulled Noodles",
        "address": "207 E 26th St New York, NY 10016",
        "coordinates": {
            "latitude": 40.74052419050578,
            "longitude": -73.98091535792065
        },
        "numReviews": 168,
        "rating": 4.5,
        "zipCode": "10016",
        "insertedAtTimestamp": "2026-02-14T03:29:42.008811"
    },
    {
        "businessId": "RYoc4EBUNOtgbg7c32OG9A",
        "name": "Atoboy",
        "address": "43 E 28th St New York, NY 10016",
        "coordinates": {
            "latitude": 40.74364,
            "longitude": -73.98456
        },
        "numReviews": 772,
        "rating": 4.3,
        "zipCode": "10016",
        "insertedAtTimestamp": "2026-02-14T03:29:42.008811"
    },
    {
        "businessId": "7bpZZUpEclhn29wWVqFsKA",
        "name": "Lucky Rabbit Noodles",
        "address": "151 Front St Brooklyn, NY 11201",
        "coordinates": {
            "latitude": 40.70261145828371,
            "longitude": -73.98691917385983
        },
        "numReviews": 144,
        "rating": 4.3,
        "zipCode": "11201",
        "insertedAtTimestamp": "2026-02-14T03:29:42.008811"
    },
    {
        "businessId": "m3gXIgSxJapyDaSPKBjfYw",
        "name": "Shanghai Dumplings Fusion",
        "address": "158 W 72nd St New York, NY 10023",
        "coordinates": {
            "latitude": 40.77802703856498,
            "longitude": -73.9809994
        },
        "numReviews": 34,
        "rating": 4.4,
        "zipCode": "10023",
        "insertedAtTimestamp": "2026-02-14T03:29:42.008811"
    },
    {
        "businessId": "eEeBhw0UeyEyH5elwm9ULg",
        "name": "Juqi",
        "address": "133-36 37th Ave Flushing, NY 11354",
        "coordinates": {
            "latitude": 40.76030658850499,
            "longitude": -73.8335025
        },
        "numReviews": 1054,
        "rating": 4.6,
        "zipCode": "11354",
        "insertedAtTimestamp": "2026-02-14T03:29:42.008811"
    },
    {
        "businessId": "XaEFFUabnbH8ZF7ccmSAlQ",
        "name": "South Of The Clouds",
        "address": "16 W 8th St New York, NY 10011",
        "coordinates": {
            "latitude": 40.73264,
            "longitude": -73.99752
        },
        "numReviews": 281,
        "rating": 3.9,
        "zipCode": "10011",
        "insertedAtTimestamp": "2026-02-14T03:29:42.008811"
    },
    {
        "businessId": "iXH9H75idkSB-Eudo5ABhg",
        "name": "Tang By Mr Sun",
        "address": "1442 3rd Ave New York, NY 10028",
        "coordinates": {
            "latitude": 40.77614,
            "longitude": -73.95616
        },
        "numReviews": 143,
        "rating": 4.4,
        "zipCode": "10028",
        "insertedAtTimestamp": "2026-02-14T03:29:42.008811"
    },
    {
        "businessId": "l7G5tDA96xbA_bx1ZgkOeg",
        "name": "ICHIRAN Midtown",
        "address": "132 W 31st St New York, NY 10001",
        "coordinates": {
            "latitude": 40.74839,
            "longitude": -73.99062
        },
        "numReviews": 1697,
        "rating": 4.2,
        "zipCode": "10001",
        "insertedAtTimestamp": "2026-02-14T03:29:42.008811"
    },
    {
        "businessId": "SYFLyQAFRFoDURRWafeLKA",
        "name": "Lin & Daughters",
        "address": "181 West 4th St New York, NY 10014",
        "coordinates": {
            "latitude": 40.732531120339715,
            "longitude": -74.00166570319386
        },
        "numReviews": 129,
        "rating": 4.5,
        "zipCode": "10014",
        "insertedAtTimestamp": "2026-02-14T03:29:42.008811"
    },
    {
        "businessId": "3Qhu8JvfkMVLjR-Yh3XHsw",
        "name": "Elephant Ear Thai Restaurant",
        "address": "690 9th Ave New York, NY 10036",
        "coordinates": {
            "latitude": 40.761755,
            "longitude": -73.989803
        },
        "numReviews": 171,
        "rating": 4.3,
        "zipCode": "10036",
        "insertedAtTimestamp": "2026-02-14T03:29:42.008811"
    },
    {
        "businessId": "Vbmv3T7hr_owVic5BQXs5w",
        "name": "Din Soup Dumplings",
        "address": "162 Montague St Brooklyn, NY 11201",
        "coordinates": {
            "latitude": 40.694191,
            "longitude": -73.992814
        },
        "numReviews": 447,
        "rating": 4.6,
        "zipCode": "11201",
        "insertedAtTimestamp": "2026-02-14T03:29:42.008811"
    },
    {
        "businessId": "wobICp6lQP7Y6dfnJ_4Ujw",
        "name": "Shun Lee West & Cafe",
        "address": "43 W 65th St New York, NY 10023",
        "coordinates": {
            "latitude": 40.77269583,
            "longitude": -73.98150783
        },
        "numReviews": 614,
        "rating": 2.7,
        "zipCode": "10023",
        "insertedAtTimestamp": "2026-02-14T03:29:42.008811"
    },
    {
        "businessId": "ICNwlgXTrvFrGvaScUp8Ew",
        "name": "For U",
        "address": "155 3rd Ave New York, NY 10003",
        "coordinates": {
            "latitude": 40.73415,
            "longitude": -73.98633
        },
        "numReviews": 109,
        "rating": 4.7,
        "zipCode": "10003",
        "insertedAtTimestamp": "2026-02-14T03:29:42.008811"
    },
    {
        "businessId": "OQTbwd3iRAKqfw0YFZmqtQ",
        "name": "La Caridad 72",
        "address": "130 W 72nd St New York, NY 10023",
        "coordinates": {
            "latitude": 40.77775,
            "longitude": -73.98003
        },
        "numReviews": 120,
        "rating": 4.3,
        "zipCode": "10023",
        "insertedAtTimestamp": "2026-02-14T03:29:42.008811"
    },
    {
        "businessId": "uSA8YIZaI-2ikkkLzLdwIA",
        "name": "Yeh\u2019s Bao",
        "address": "38 Rector St New York, NY 10006",
        "coordinates": {
            "latitude": 40.708411454439194,
            "longitude": -74.0146604
        },
        "numReviews": 45,
        "rating": 4.4,
        "zipCode": "10006",
        "insertedAtTimestamp": "2026-02-14T03:29:42.008811"
    },
    {
        "businessId": "rGUv1nNmsvy2jOlZtbaOpw",
        "name": "Dimsum Garden",
        "address": "338 Lexington Ave New York, NY 10016",
        "coordinates": {
            "latitude": 40.74979,
            "longitude": -73.97743
        },
        "numReviews": 185,
        "rating": 4.2,
        "zipCode": "10016",
        "insertedAtTimestamp": "2026-02-14T03:29:42.008811"
    },
    {
        "businessId": "6hQ99bOWEbja_Gwv_-nZUw",
        "name": "Opera House",
        "address": "5 Doyers St New York, NY 10013",
        "coordinates": {
            "latitude": 40.714227,
            "longitude": -73.998157
        },
        "numReviews": 9,
        "rating": 4.2,
        "zipCode": "10013",
        "insertedAtTimestamp": "2026-02-14T03:29:42.008811"
    },
    {
        "businessId": "xm_-5QZFzJidiUO--PgOYg",
        "name": "Bites of Xi'an",
        "address": "60 W 56th St New York, NY 10019",
        "coordinates": {
            "latitude": 40.76335868622376,
            "longitude": -73.97709537292124
        },
        "numReviews": 113,
        "rating": 4.0,
        "zipCode": "10019",
        "insertedAtTimestamp": "2026-02-14T03:29:42.008811"
    },
    {
        "businessId": "OfwZCdhj_75Bt_ml013c2A",
        "name": "Moon Wok",
        "address": "306 Gold St Ste 2C Brooklyn, NY 11201",
        "coordinates": {
            "latitude": 40.6950751,
            "longitude": -73.9835386
        },
        "numReviews": 27,
        "rating": 4.3,
        "zipCode": "11201",
        "insertedAtTimestamp": "2026-02-14T03:29:42.008811"
    },
    {
        "businessId": "-lgNzAEyFr8LCTuBTWnAMg",
        "name": "Dim Sum Palace",
        "address": "28 W 56th St New York, NY 10019",
        "coordinates": {
            "latitude": 40.762765496672955,
            "longitude": -73.97609185077448
        },
        "numReviews": 540,
        "rating": 4.0,
        "zipCode": "10019",
        "insertedAtTimestamp": "2026-02-14T03:29:42.008811"
    },
    {
        "businessId": "HduEOz0RSK91GDr8EoxELw",
        "name": "Dim Sum Bloom ",
        "address": "2596 Broadway New York, NY 10025",
        "coordinates": {
            "latitude": 40.79578322840011,
            "longitude": -73.97059834028322
        },
        "numReviews": 64,
        "rating": 4.0,
        "zipCode": "10025",
        "insertedAtTimestamp": "2026-02-14T03:29:42.008811"
    },
    {
        "businessId": "2wVirrAVg3ltAFHoHeXHMQ",
        "name": "Dim Sum Palace",
        "address": "59 2nd Ave New York, NY 10003",
        "coordinates": {
            "latitude": 40.7259,
            "longitude": -73.98986
        },
        "numReviews": 437,
        "rating": 4.4,
        "zipCode": "10003",
        "insertedAtTimestamp": "2026-02-14T03:29:42.008811"
    },
    {
        "businessId": "4fBgrzK3S_zSlVJ6sLJYTA",
        "name": "Red Bowl",
        "address": "8518 3rd Ave Brooklyn, NY 11209",
        "coordinates": {
            "latitude": 40.62393,
            "longitude": -74.03104
        },
        "numReviews": 181,
        "rating": 4.4,
        "zipCode": "11209",
        "insertedAtTimestamp": "2026-02-14T03:29:42.008811"
    },
    {
        "businessId": "_XLLSXPIjgoZQtwU3RCcQA",
        "name": "Chuan Shan Yen Restrnt",
        "address": "752 Union Flr 1 Brooklyn, NY 11215",
        "coordinates": {
            "latitude": 40.67528,
            "longitude": -73.978245
        },
        "numReviews": 376,
        "rating": 3.9,
        "zipCode": "11215",
        "insertedAtTimestamp": "2026-02-14T03:29:42.008811"
    },
    {
        "businessId": "z5f--L8_vB_WvSaRca7LQQ",
        "name": "The Best Sichuan",
        "address": "22 E 21st St New York, NY 10017",
        "coordinates": {
            "latitude": 40.73945005575927,
            "longitude": -73.98913809999999
        },
        "numReviews": 151,
        "rating": 4.5,
        "zipCode": "10017",
        "insertedAtTimestamp": "2026-02-14T03:29:42.008811"
    },
    {
        "businessId": "wyjtGsW5NeVDknGQWnIPAQ",
        "name": "wagamama - midtown",
        "address": "100 W 55th St New York, NY 10019",
        "coordinates": {
            "latitude": 40.76316041296893,
            "longitude": -73.97885444091449
        },
        "numReviews": 527,
        "rating": 4.3,
        "zipCode": "10019",
        "insertedAtTimestamp": "2026-02-14T03:29:42.008811"
    },
    {
        "businessId": "TzhAlljC_843JO7UDDUIaQ",
        "name": "The Tang - Upper West Side",
        "address": "920 Amsterdam Ave New York, NY 10025",
        "coordinates": {
            "latitude": 40.80006,
            "longitude": -73.96639
        },
        "numReviews": 354,
        "rating": 4.2,
        "zipCode": "10025",
        "insertedAtTimestamp": "2026-02-14T03:29:42.008811"
    },
    {
        "businessId": "SlHDBkbBEKGTvJxDnw8aUQ",
        "name": "Nan Xiang Soup Dumplings - East Village",
        "address": "15 St Marks Pl New York, NY 10003",
        "coordinates": {
            "latitude": 40.729361,
            "longitude": -73.988827
        },
        "numReviews": 319,
        "rating": 4.7,
        "zipCode": "10003",
        "insertedAtTimestamp": "2026-02-14T03:29:42.008811"
    },
    {
        "businessId": "iuQz7y-mv32U4ZA56gvtHw",
        "name": "Milu",
        "address": "225 Liberty St Fl 2 New York, NY 10281",
        "coordinates": {
            "latitude": 40.71156,
            "longitude": -74.01533
        },
        "numReviews": 20,
        "rating": 3.9,
        "zipCode": "10281",
        "insertedAtTimestamp": "2026-02-14T03:29:42.008811"
    },
    {
        "businessId": "_OtxaGXo-SIzscojcf6MqA",
        "name": "1915 Lanzhou Hand Pulled Noodles",
        "address": "76 Mott St Chinatown, NY 10013",
        "coordinates": {
            "latitude": 40.71642,
            "longitude": -73.997864
        },
        "numReviews": 130,
        "rating": 4.2,
        "zipCode": "10013",
        "insertedAtTimestamp": "2026-02-14T03:29:42.008811"
    },
    {
        "businessId": "BPErPpKSNluwcjbKRgze3w",
        "name": "Xi'an Famous Foods",
        "address": "328 E 78th St New York, NY 10075",
        "coordinates": {
            "latitude": 40.77197,
            "longitude": -73.95452
        },
        "numReviews": 731,
        "rating": 4.3,
        "zipCode": "10075",
        "insertedAtTimestamp": "2026-02-14T03:29:42.008811"
    },
    {
        "businessId": "_2Ymg8T3aQyTD40cpoRsSg",
        "name": "Marathon Hong Kong Diner",
        "address": "27-17 42nd Rd Queens, NY 11101",
        "coordinates": {
            "latitude": 40.749305,
            "longitude": -73.939942
        },
        "numReviews": 65,
        "rating": 4.7,
        "zipCode": "11101",
        "insertedAtTimestamp": "2026-02-14T03:29:42.008811"
    },
    {
        "businessId": "k34VgKhpuIRPEr8vKSMwjA",
        "name": "Chung Chun Kitchen",
        "address": "338 Myrtle Ave Brooklyn, NY 11205",
        "coordinates": {
            "latitude": 40.69305,
            "longitude": -73.97299
        },
        "numReviews": 35,
        "rating": 3.1,
        "zipCode": "11205",
        "insertedAtTimestamp": "2026-02-14T03:29:42.008811"
    },
    {
        "businessId": "_7GunmWHykEJ5_u2zkX1gg",
        "name": "Dim Sum Sam",
        "address": "28 E 23rd St New York, NY 10010",
        "coordinates": {
            "latitude": 40.740541,
            "longitude": -73.987818
        },
        "numReviews": 167,
        "rating": 3.9,
        "zipCode": "10010",
        "insertedAtTimestamp": "2026-02-14T03:29:42.008811"
    },
    {
        "businessId": "i4cyV13lYIS4mcJKZW75cA",
        "name": "Food Sing",
        "address": "172 Grand St Brooklyn, NY 11211",
        "coordinates": {
            "latitude": 40.714324,
            "longitude": -73.961257
        },
        "numReviews": 87,
        "rating": 3.4,
        "zipCode": "11211",
        "insertedAtTimestamp": "2026-02-14T03:29:42.008811"
    },
    {
        "businessId": "RWqYuXGQyaM9vl7FUhyHGQ",
        "name": "Foodie Bbq",
        "address": "300 Grand St New York, NY 10002",
        "coordinates": {
            "latitude": 40.71764408380964,
            "longitude": -73.9916840558393
        },
        "numReviews": 7,
        "rating": 3.9,
        "zipCode": "10002",
        "insertedAtTimestamp": "2026-02-14T03:29:42.008811"
    },
    {
        "businessId": "miYWrEThPPhB7AW0A72WHw",
        "name": "Silky Kitchen",
        "address": "56 Willoughby St Brooklyn, NY 11201",
        "coordinates": {
            "latitude": 40.692009,
            "longitude": -73.986618
        },
        "numReviews": 33,
        "rating": 4.3,
        "zipCode": "11201",
        "insertedAtTimestamp": "2026-02-14T03:29:42.008811"
    },
    {
        "businessId": "gNmF50bsYnpVQCNXoW02mg",
        "name": "Jing Fong Restaurant",
        "address": "202 Centre St New York, NY 10013",
        "coordinates": {
            "latitude": 40.71882649220873,
            "longitude": -73.99901858958395
        },
        "numReviews": 279,
        "rating": 3.8,
        "zipCode": "10013",
        "insertedAtTimestamp": "2026-02-14T03:29:42.008811"
    },
    {
        "businessId": "BF5rzGE9OOTOUVH0pjHa5Q",
        "name": "Shanghai Villa",
        "address": "144 West 4th St New York, NY 10012",
        "coordinates": {
            "latitude": 40.73135,
            "longitude": -74.00048
        },
        "numReviews": 46,
        "rating": 4.3,
        "zipCode": "10012",
        "insertedAtTimestamp": "2026-02-14T03:29:42.008811"
    },
    {
        "businessId": "JaKLZrh1Y_2qB_0Gc3bk3A",
        "name": "Ollie's Sichuan",
        "address": "411 W 42nd St New York, NY 10036",
        "coordinates": {
            "latitude": 40.75884,
            "longitude": -73.99319
        },
        "numReviews": 690,
        "rating": 3.4,
        "zipCode": "10036",
        "insertedAtTimestamp": "2026-02-14T03:29:42.008811"
    },
    {
        "businessId": "PJvQw_TcinCzkYjwTwsCYQ",
        "name": "Goku Kitchen",
        "address": "26 Cedar St New York, NY 10005",
        "coordinates": {
            "latitude": 40.707046,
            "longitude": -74.008397
        },
        "numReviews": 106,
        "rating": 4.6,
        "zipCode": "10005",
        "insertedAtTimestamp": "2026-02-14T03:29:42.008811"
    },
    {
        "businessId": "sfsjk1h50ooC2ioY7m48gw",
        "name": "Pig Heaven",
        "address": "1420 3rd Ave New York, NY 10028",
        "coordinates": {
            "latitude": 40.77543197138421,
            "longitude": -73.95685334450994
        },
        "numReviews": 599,
        "rating": 3.8,
        "zipCode": "10028",
        "insertedAtTimestamp": "2026-02-14T03:29:42.008811"
    },
    {
        "businessId": "m4lJL1hpJCkfB_fXsj8iQQ",
        "name": "The Rogue Panda",
        "address": "55 Water St Ste 5 Brooklyn, NY 11201",
        "coordinates": {
            "latitude": 40.703418788303445,
            "longitude": -73.9923495
        },
        "numReviews": 84,
        "rating": 4.5,
        "zipCode": "11201",
        "insertedAtTimestamp": "2026-02-14T03:29:42.008811"
    },
    {
        "businessId": "TlUHaom80OxBB8J1hmI3jQ",
        "name": "Dim Sum Palace",
        "address": "24-28 Jackson Ave Long Island, NY 11101",
        "coordinates": {
            "latitude": 40.746215,
            "longitude": -73.944087
        },
        "numReviews": 24,
        "rating": 3.6,
        "zipCode": "11101",
        "insertedAtTimestamp": "2026-02-14T03:29:42.008811"
    },
    {
        "businessId": "WIj12zDqIbBucW1hXYhrew",
        "name": "King's Kitchen",
        "address": "92 E Broadway New York, NY 10002",
        "coordinates": {
            "latitude": 40.713985,
            "longitude": -73.993675
        },
        "numReviews": 385,
        "rating": 3.8,
        "zipCode": "10002",
        "insertedAtTimestamp": "2026-02-14T03:29:42.008811"
    },
    {
        "businessId": "v2dtG37r1ThqtfEfiFsAUg",
        "name": "Shanghai Mong",
        "address": "30 W 32nd St New York, NY 10001",
        "coordinates": {
            "latitude": 40.747752455483344,
            "longitude": -73.98708256213824
        },
        "numReviews": 673,
        "rating": 3.1,
        "zipCode": "10001",
        "insertedAtTimestamp": "2026-02-14T03:29:42.008811"
    },
    {
        "businessId": "QaolMEijS7L6eodSneOdng",
        "name": "Tri Dim Shanghai West",
        "address": "467 Columbus Ave New York, NY 10024",
        "coordinates": {
            "latitude": 40.784058,
            "longitude": -73.973567
        },
        "numReviews": 296,
        "rating": 4.1,
        "zipCode": "10024",
        "insertedAtTimestamp": "2026-02-14T03:29:42.008811"
    },
    {
        "businessId": "L2SZWAbMHRDN8OuNyDzldQ",
        "name": "Tin Wong",
        "address": "148 Hester St New York, NY 10013",
        "coordinates": {
            "latitude": 40.717394,
            "longitude": -73.996154
        },
        "numReviews": 37,
        "rating": 4.5,
        "zipCode": "10013",
        "insertedAtTimestamp": "2026-02-14T03:29:42.008811"
    },
    {
        "businessId": "8plXW6ZQI1awPu1scms3jQ",
        "name": "Silky Kitchen",
        "address": "138 W 46th St New York, NY 10036",
        "coordinates": {
            "latitude": 40.757889,
            "longitude": -73.984009
        },
        "numReviews": 122,
        "rating": 4.4,
        "zipCode": "10036",
        "insertedAtTimestamp": "2026-02-14T03:29:42.008811"
    },
    {
        "businessId": "SMImQM_JfZkIZwflTgOAoQ",
        "name": "Yi Ji Shi Mo Noodle Corp",
        "address": "88 Elizabeth St New York, NY 10013",
        "coordinates": {
            "latitude": 40.71824,
            "longitude": -73.99583
        },
        "numReviews": 423,
        "rating": 4.6,
        "zipCode": "10013",
        "insertedAtTimestamp": "2026-02-14T03:29:42.008811"
    },
    {
        "businessId": "NebgteFykeM1gwiVgPcCHw",
        "name": "The Handpulled Noodle",
        "address": "3600 Broadway Ste 3 New York, NY 10031",
        "coordinates": {
            "latitude": 40.828301,
            "longitude": -73.948534
        },
        "numReviews": 1252,
        "rating": 4.2,
        "zipCode": "10031",
        "insertedAtTimestamp": "2026-02-14T03:29:42.008811"
    },
    {
        "businessId": "BtsXojrMtfLRhhFK7rm35A",
        "name": "HUPO \u7425\u73c0",
        "address": "10-07 50th Ave Long Island City, NY 11101",
        "coordinates": {
            "latitude": 40.74284,
            "longitude": -73.953607
        },
        "numReviews": 303,
        "rating": 4.3,
        "zipCode": "11101",
        "insertedAtTimestamp": "2026-02-14T03:29:42.008811"
    },
    {
        "businessId": "s25mujxKWphsyFm0Ji1xYA",
        "name": "Mr Chow",
        "address": "324 E 57th St New York, NY 10022",
        "coordinates": {
            "latitude": 40.7588502019644,
            "longitude": -73.9643376320601
        },
        "numReviews": 470,
        "rating": 2.9,
        "zipCode": "10022",
        "insertedAtTimestamp": "2026-02-14T03:29:42.008811"
    },
    {
        "businessId": "-VRnWGBVMovSS0Ijta_qyg",
        "name": "Da Long Yi Hot Pot",
        "address": "42-22 Crescent St Long Island City, NY 11101",
        "coordinates": {
            "latitude": 40.75014,
            "longitude": -73.94132
        },
        "numReviews": 264,
        "rating": 4.7,
        "zipCode": "11101",
        "insertedAtTimestamp": "2026-02-14T03:29:42.008811"
    },
    {
        "businessId": "UBY796Pa8HAuqC2uRR0WNg",
        "name": "Dim Sum Sam",
        "address": "240 W 40th St New York, NY 10018",
        "coordinates": {
            "latitude": 40.75532,
            "longitude": -73.98949
        },
        "numReviews": 227,
        "rating": 4.0,
        "zipCode": "10018",
        "insertedAtTimestamp": "2026-02-14T03:29:42.008811"
    },
    {
        "businessId": "croh2zWlbPyCQTNS11klcg",
        "name": "China River \u5ddd\u805a\u9662",
        "address": "258 W 44th St New York, NY 10036",
        "coordinates": {
            "latitude": 40.75821,
            "longitude": -73.98833
        },
        "numReviews": 320,
        "rating": 3.9,
        "zipCode": "10036",
        "insertedAtTimestamp": "2026-02-14T03:29:42.008811"
    },
    {
        "businessId": "ZYVnOS12C9x7-RS5PY7mWA",
        "name": "Long Island Dumplings",
        "address": "513 6th Ave New York, NY 10011",
        "coordinates": {
            "latitude": 40.73696207654364,
            "longitude": -73.99735942024054
        },
        "numReviews": 12,
        "rating": 4.4,
        "zipCode": "10011",
        "insertedAtTimestamp": "2026-02-14T03:29:42.008811"
    },
    {
        "businessId": "xtxcAUvrD4dWHJd0cwvW1A",
        "name": "JeJu Noodle Bar",
        "address": "679 Greenwich St New York, NY 10014",
        "coordinates": {
            "latitude": 40.73304,
            "longitude": -74.00734
        },
        "numReviews": 1273,
        "rating": 4.2,
        "zipCode": "10014",
        "insertedAtTimestamp": "2026-02-14T03:29:42.008811"
    },
    {
        "businessId": "LSBaSVvgmFdxgIQAg2XjTQ",
        "name": "Georgie's",
        "address": "182 Broome St Fl 2 New York, NY 10002",
        "coordinates": {
            "latitude": 40.71708546087407,
            "longitude": -73.98642099999999
        },
        "numReviews": 46,
        "rating": 4.3,
        "zipCode": "10002",
        "insertedAtTimestamp": "2026-02-14T03:29:42.008811"
    },
    {
        "businessId": "L9SuMN3UsGipopWOe3pr9w",
        "name": "Chiko",
        "address": "954 Manhattan Ave Brooklyn, NY 11222",
        "coordinates": {
            "latitude": 40.7318799,
            "longitude": -73.95437
        },
        "numReviews": 69,
        "rating": 4.7,
        "zipCode": "11222",
        "insertedAtTimestamp": "2026-02-14T03:29:42.008811"
    },
    {
        "businessId": "bAMTBEztHz4zQqYiIyzf4w",
        "name": "Chong Qing Lao Zao",
        "address": "37-04 Prince St Flushing, NY 11354",
        "coordinates": {
            "latitude": 40.76065,
            "longitude": -73.83304
        },
        "numReviews": 487,
        "rating": 4.5,
        "zipCode": "11354",
        "insertedAtTimestamp": "2026-02-14T03:29:42.008811"
    },
    {
        "businessId": "QQfwlKFD6X8-ZXf7gfQZqg",
        "name": "Hardee",
        "address": "351 Myrtle Ave New York, NY 11205",
        "coordinates": {
            "latitude": 40.6933441162109,
            "longitude": -73.9722290039062
        },
        "numReviews": 38,
        "rating": 4.2,
        "zipCode": "11205",
        "insertedAtTimestamp": "2026-02-14T03:29:42.008811"
    },
    {
        "businessId": "olRNNJCJ2TJvPRmjBiOcGA",
        "name": "Silky Kitchen",
        "address": "12 John St New York, NY 10038",
        "coordinates": {
            "latitude": 40.709857428970345,
            "longitude": -74.00910844837206
        },
        "numReviews": 329,
        "rating": 4.3,
        "zipCode": "10038",
        "insertedAtTimestamp": "2026-02-14T03:29:42.008811"
    },
    {
        "businessId": "9LEKoUZRzkiHOn-AoKgdPw",
        "name": "Ren",
        "address": "623 Grand St Brooklyn, NY 11211",
        "coordinates": {
            "latitude": 40.711558537010006,
            "longitude": -73.94714619999999
        },
        "numReviews": 24,
        "rating": 4.6,
        "zipCode": "11211",
        "insertedAtTimestamp": "2026-02-14T03:29:42.008811"
    },
    {
        "businessId": "MGMZRnhXxolUgGI4I0BRmw",
        "name": "Yong Chuan",
        "address": "90 Clinton St New York, NY 10002",
        "coordinates": {
            "latitude": 40.71832,
            "longitude": -73.98536
        },
        "numReviews": 58,
        "rating": 4.3,
        "zipCode": "10002",
        "insertedAtTimestamp": "2026-02-14T03:29:42.008811"
    },
    {
        "businessId": "JxrTO6uUxYkrKvFKg3JmRw",
        "name": "Jiang Nan - Long Island City",
        "address": "27-19 Thomson Ave Long Island City, NY 11101",
        "coordinates": {
            "latitude": 40.746444,
            "longitude": -73.942336
        },
        "numReviews": 95,
        "rating": 4.4,
        "zipCode": "11101",
        "insertedAtTimestamp": "2026-02-14T03:29:42.008811"
    },
    {
        "businessId": "U74_3F7r3tMhd6dmTmDBxQ",
        "name": "Macao Trading Company",
        "address": "311 Church St New York, NY 10013",
        "coordinates": {
            "latitude": 40.719623,
            "longitude": -74.003904
        },
        "numReviews": 924,
        "rating": 3.8,
        "zipCode": "10013",
        "insertedAtTimestamp": "2026-02-14T03:29:42.008811"
    },
    {
        "businessId": "VW2Epq3C8jqysu6Edpu-RA",
        "name": "Atlas Kitchen",
        "address": "258 W 109th St New York, NY 10025",
        "coordinates": {
            "latitude": 40.80332,
            "longitude": -73.9668
        },
        "numReviews": 231,
        "rating": 3.8,
        "zipCode": "10025",
        "insertedAtTimestamp": "2026-02-14T03:29:42.008811"
    },
    {
        "businessId": "lTJtCYatAk9oL3ncVofr6w",
        "name": "Shang Gong Chu",
        "address": "319 Warren St Jersey City, NJ 07302",
        "coordinates": {
            "latitude": 40.71903,
            "longitude": -74.03879
        },
        "numReviews": 72,
        "rating": 4.5,
        "zipCode": "07302",
        "insertedAtTimestamp": "2026-02-14T03:29:42.008811"
    },
    {
        "businessId": "c2CUs5PlcvfGKiUES1_JTw",
        "name": "Emperor Dumpling",
        "address": "685 3rd Ave New York, NY 11232",
        "coordinates": {
            "latitude": 40.751718316592246,
            "longitude": -73.97355601376614
        },
        "numReviews": 41,
        "rating": 4.3,
        "zipCode": "11232",
        "insertedAtTimestamp": "2026-02-14T03:29:42.008811"
    },
    {
        "businessId": "cOtB9fWWLrbaBebZDjJquQ",
        "name": "DunHuang Miss Noodles",
        "address": "531 Myrtle Ave Brooklyn, NY 11205",
        "coordinates": {
            "latitude": 40.693868137768895,
            "longitude": -73.9634565145772
        },
        "numReviews": 104,
        "rating": 4.2,
        "zipCode": "11205",
        "insertedAtTimestamp": "2026-02-14T03:29:42.008811"
    },
    {
        "businessId": "MPPUvvU_ir-OrARc_7pIJg",
        "name": "Grandma's Dumpling House",
        "address": "24 Pell St New York, NY 10013",
        "coordinates": {
            "latitude": 40.71493625678454,
            "longitude": -73.99824243038893
        },
        "numReviews": 12,
        "rating": 4.4,
        "zipCode": "10013",
        "insertedAtTimestamp": "2026-02-14T03:29:42.008811"
    },
    {
        "businessId": "3eBV6HwWcdHzJW3sUH-2hw",
        "name": "ICHIRAN - Times Square",
        "address": "152 W 49th St New York, NY 10019",
        "coordinates": {
            "latitude": 40.7600737531204,
            "longitude": -73.9833259411037
        },
        "numReviews": 1274,
        "rating": 4.4,
        "zipCode": "10019",
        "insertedAtTimestamp": "2026-02-14T03:29:42.008811"
    },
    {
        "businessId": "Xf6e3HaP0AgMBxY7dEDkOA",
        "name": "99 Favor Taste - New York",
        "address": "285 Grand St New York, NY 10002",
        "coordinates": {
            "latitude": 40.7176199,
            "longitude": -73.99249
        },
        "numReviews": 2261,
        "rating": 4.0,
        "zipCode": "10002",
        "insertedAtTimestamp": "2026-02-14T03:29:42.008811"
    },
    {
        "businessId": "-OXEVU1TYO1u1eqq1AMKag",
        "name": "Corgi Jianbing",
        "address": "135B N 5th St Brooklyn, NY 11249",
        "coordinates": {
            "latitude": 40.7170234,
            "longitude": -73.95911483215188
        },
        "numReviews": 3,
        "rating": 4.7,
        "zipCode": "11249",
        "insertedAtTimestamp": "2026-02-14T03:29:42.008811"
    },
    {
        "businessId": "qH8PVeddtVs9cKN2pwgdkQ",
        "name": "Hwa Yuan",
        "address": "42 E Broadway New York, NY 10002",
        "coordinates": {
            "latitude": 40.7137,
            "longitude": -73.99598
        },
        "numReviews": 551,
        "rating": 3.9,
        "zipCode": "10002",
        "insertedAtTimestamp": "2026-02-14T03:29:42.008811"
    },
    {
        "businessId": "AImhpHnwq_1qJeopUzdohA",
        "name": "House Of The Red Pearl",
        "address": "96 South St New York, NY 10038",
        "coordinates": {
            "latitude": 40.70659,
            "longitude": -74.00266
        },
        "numReviews": 117,
        "rating": 3.8,
        "zipCode": "10038",
        "insertedAtTimestamp": "2026-02-14T03:29:42.008811"
    },
    {
        "businessId": "1dFOF1HPaThSCsdiqR7DrA",
        "name": "Land of Plenty",
        "address": "204E 58th St New York, NY 10022",
        "coordinates": {
            "latitude": 40.760590326928856,
            "longitude": -73.96659593005877
        },
        "numReviews": 390,
        "rating": 3.7,
        "zipCode": "10022",
        "insertedAtTimestamp": "2026-02-14T03:29:42.008811"
    },
    {
        "businessId": "QBW5zCUwDPcj4nNAi2lhpQ",
        "name": "Breeze",
        "address": "595 Manhattan Ave Brooklyn, NY 11222",
        "coordinates": {
            "latitude": 40.72301295163434,
            "longitude": -73.95061489999999
        },
        "numReviews": 126,
        "rating": 4.7,
        "zipCode": "11222",
        "insertedAtTimestamp": "2026-02-14T03:29:42.008811"
    },
    {
        "businessId": "SR3w3XVCgpUSwDk4sZzwZQ",
        "name": "Nai Brother",
        "address": "27-17 42nd Rd Long Island City, NY 11101",
        "coordinates": {
            "latitude": 40.749254916155174,
            "longitude": -73.9398239
        },
        "numReviews": 124,
        "rating": 4.7,
        "zipCode": "11101",
        "insertedAtTimestamp": "2026-02-14T03:29:42.008811"
    },
    {
        "businessId": "uaFHoq-a5XqxF-bsOK9_Qg",
        "name": "Real Kung Fu Little Steamed Buns Ramen",
        "address": "811 8th Ave New York, NY 10019",
        "coordinates": {
            "latitude": 40.7616,
            "longitude": -73.98684
        },
        "numReviews": 1263,
        "rating": 3.8,
        "zipCode": "10019",
        "insertedAtTimestamp": "2026-02-14T03:29:42.008811"
    },
    {
        "businessId": "rpIMYwZhRJZKl0-AUgUrjw",
        "name": "The Orchard Room",
        "address": "120 Orchard St New York, NY 10002",
        "coordinates": {
            "latitude": 40.719365,
            "longitude": -73.989322
        },
        "numReviews": 20,
        "rating": 4.5,
        "zipCode": "10002",
        "insertedAtTimestamp": "2026-02-14T03:29:42.008811"
    },
    {
        "businessId": "vDPx5p1TlahKM3kEKF-drQ",
        "name": "Mala Panda",
        "address": "105 West 27th St New York, NY 10001",
        "coordinates": {
            "latitude": 40.74582305157627,
            "longitude": -73.99136341799563
        },
        "numReviews": 92,
        "rating": 4.6,
        "zipCode": "10001",
        "insertedAtTimestamp": "2026-02-14T03:29:42.008811"
    },
    {
        "businessId": "gDCK63W5_8-tdCCWr92rbw",
        "name": "Shan",
        "address": "191 Smith St Brooklyn, NY 11201",
        "coordinates": {
            "latitude": 40.68524,
            "longitude": -73.99133
        },
        "numReviews": 146,
        "rating": 4.4,
        "zipCode": "11201",
        "insertedAtTimestamp": "2026-02-14T03:29:42.008811"
    },
    {
        "businessId": "R3UNnA8EbjhNWBHS0wJ0VA",
        "name": "Grand Sichuan Eastern",
        "address": "1049 2nd Ave New York, NY 10022",
        "coordinates": {
            "latitude": 40.75831,
            "longitude": -73.96636
        },
        "numReviews": 296,
        "rating": 3.3,
        "zipCode": "10022",
        "insertedAtTimestamp": "2026-02-14T03:29:42.008811"
    },
    {
        "businessId": "ytSYNeVyYPServG3yB5CWA",
        "name": "Shorty Tang & Sons",
        "address": "406 Tompkins St Orange, NJ 07050",
        "coordinates": {
            "latitude": 40.766726,
            "longitude": -74.2462
        },
        "numReviews": 6,
        "rating": 4.8,
        "zipCode": "07050",
        "insertedAtTimestamp": "2026-02-14T03:29:42.008811"
    },
    {
        "businessId": "bwhR87JQezK6Gjft9ft95g",
        "name": "Yum Cha Chinese Kitchen and Bar",
        "address": "228 Thompson St New York, NY 10012",
        "coordinates": {
            "latitude": 40.729292,
            "longitude": -73.998764
        },
        "numReviews": 78,
        "rating": 4.2,
        "zipCode": "10012",
        "insertedAtTimestamp": "2026-02-14T03:29:42.008811"
    },
    {
        "businessId": "ItZ8CzZAGXGjB8_9HxDIXg",
        "name": "Grand Sichuan Eastern",
        "address": "172 8th Ave New York, NY 10011",
        "coordinates": {
            "latitude": 40.74256,
            "longitude": -74.00026
        },
        "numReviews": 151,
        "rating": 3.0,
        "zipCode": "10011",
        "insertedAtTimestamp": "2026-02-14T03:29:42.008811"
    },
    {
        "businessId": "MdDj13LgIs0WdbIdiyqB7Q",
        "name": "Pinch Chinese",
        "address": "177 Prince St New York, NY 10012",
        "coordinates": {
            "latitude": 40.72645222833495,
            "longitude": -74.0017973317552
        },
        "numReviews": 523,
        "rating": 3.8,
        "zipCode": "10012",
        "insertedAtTimestamp": "2026-02-14T03:29:42.008811"
    },
    {
        "businessId": "XvOhc15ETRp8FkK1_lVizQ",
        "name": "Chang Lai Fishballs & Noodles",
        "address": "55B Bayard St New York, NY 10013",
        "coordinates": {
            "latitude": 40.71531279614864,
            "longitude": -73.99780121497064
        },
        "numReviews": 415,
        "rating": 4.8,
        "zipCode": "10013",
        "insertedAtTimestamp": "2026-02-14T03:29:42.008811"
    },
    {
        "businessId": "16ZnHpuaaBt92XWeJHCC5A",
        "name": "Olio e Pi\u00f9",
        "address": "3 Greenwich Ave New York, NY 10014",
        "coordinates": {
            "latitude": 40.73406231935954,
            "longitude": -73.99999980859876
        },
        "numReviews": 7240,
        "rating": 4.5,
        "zipCode": "10014",
        "insertedAtTimestamp": "2026-02-14T03:29:42.008811"
    },
    {
        "businessId": "rp8S7scxOkVVeG7dNneMGQ",
        "name": "L'Artusi",
        "address": "228 W 10th St New York, NY 10014",
        "coordinates": {
            "latitude": 40.73384,
            "longitude": -74.00515
        },
        "numReviews": 2687,
        "rating": 4.3,
        "zipCode": "10014",
        "insertedAtTimestamp": "2026-02-14T03:29:42.008811"
    },
    {
        "businessId": "WG639VkTjmK5dzydd1BBJA",
        "name": "Rubirosa",
        "address": "235 Mulberry St New York, NY 10012",
        "coordinates": {
            "latitude": 40.722766,
            "longitude": -73.996233
        },
        "numReviews": 3725,
        "rating": 4.3,
        "zipCode": "10012",
        "insertedAtTimestamp": "2026-02-14T03:29:42.008811"
    },
    {
        "businessId": "hdiuRS9sVZSMReZm4oV5SA",
        "name": "Da Andrea - Greenwich Village",
        "address": "35 W 13th St New York, NY 10011",
        "coordinates": {
            "latitude": 40.736287,
            "longitude": -73.995865
        },
        "numReviews": 2696,
        "rating": 4.4,
        "zipCode": "10011",
        "insertedAtTimestamp": "2026-02-14T03:29:42.008811"
    },
    {
        "businessId": "5TX0X8w5ssIACU_pnBEq6g",
        "name": "Tony's Di Napoli",
        "address": "147 W 43rd St New York, NY 10036",
        "coordinates": {
            "latitude": 40.7565066,
            "longitude": -73.98539100674591
        },
        "numReviews": 3003,
        "rating": 4.2,
        "zipCode": "10036",
        "insertedAtTimestamp": "2026-02-14T03:29:42.008811"
    },
    {
        "businessId": "qD90WXR7wrrId4Jel6rcXA",
        "name": "Olio E Pi\u00f9",
        "address": "1065 Ave of the Americas New York, NY 10018",
        "coordinates": {
            "latitude": 40.75403,
            "longitude": -73.98539
        },
        "numReviews": 83,
        "rating": 4.6,
        "zipCode": "10018",
        "insertedAtTimestamp": "2026-02-14T03:29:42.008811"
    },
    {
        "businessId": "h37t9rA06Sr4EetJjKrfzw",
        "name": "Don Angie",
        "address": "103 Greenwich Ave New York, NY 10014",
        "coordinates": {
            "latitude": 40.73778,
            "longitude": -74.00197
        },
        "numReviews": 1107,
        "rating": 4.5,
        "zipCode": "10014",
        "insertedAtTimestamp": "2026-02-14T03:29:42.008811"
    },
    {
        "businessId": "22nKUyCIbpnzR6R3_g1ptQ",
        "name": "Carmine's - Time Square",
        "address": "200 W 44th St New York, NY 10036",
        "coordinates": {
            "latitude": 40.75747,
            "longitude": -73.9866
        },
        "numReviews": 5468,
        "rating": 4.0,
        "zipCode": "10036",
        "insertedAtTimestamp": "2026-02-14T03:29:42.008811"
    },
    {
        "businessId": "OCTiJwvjoK81WoDwsTkFvA",
        "name": "Paesano of Mulberry Street",
        "address": "136 Mulberry St New York, NY 10013",
        "coordinates": {
            "latitude": 40.718554,
            "longitude": -73.997447
        },
        "numReviews": 1723,
        "rating": 4.1,
        "zipCode": "10013",
        "insertedAtTimestamp": "2026-02-14T03:29:42.008811"
    },
    {
        "businessId": "raqwXUBlnc0e8c7CYmxEJQ",
        "name": "Scarpetta",
        "address": "88 Madison Ave New York, NY 10016",
        "coordinates": {
            "latitude": 40.744509,
            "longitude": -73.9856
        },
        "numReviews": 2464,
        "rating": 4.1,
        "zipCode": "10016",
        "insertedAtTimestamp": "2026-02-14T03:29:42.008811"
    },
    {
        "businessId": "zRXMvxUX_rOliKZPpkWi_g",
        "name": "Valerie",
        "address": "45 W 45th St between 5th & 6th Ave New York, NY 10036",
        "coordinates": {
            "latitude": 40.756326,
            "longitude": -73.981117
        },
        "numReviews": 1354,
        "rating": 4.2,
        "zipCode": "10036",
        "insertedAtTimestamp": "2026-02-14T03:29:42.008811"
    },
    {
        "businessId": "qBGKigOGn_flCx1apxPzlA",
        "name": "Piccola Cucina Osteria",
        "address": "196 Spring St New York, NY 10012",
        "coordinates": {
            "latitude": 40.72503127956934,
            "longitude": -74.0032820972858
        },
        "numReviews": 927,
        "rating": 4.3,
        "zipCode": "10012",
        "insertedAtTimestamp": "2026-02-14T03:29:42.008811"
    },
    {
        "businessId": "dEOv8_ivdHp85OK_TDQh_g",
        "name": "Da Andrea - Chelsea",
        "address": "160 8th Ave New York, NY 10011",
        "coordinates": {
            "latitude": 40.742093095531565,
            "longitude": -74.0005934680497
        },
        "numReviews": 765,
        "rating": 4.6,
        "zipCode": "10011",
        "insertedAtTimestamp": "2026-02-14T03:29:42.008811"
    },
    {
        "businessId": "JFmWkslCGTeuwC_Yews4-Q",
        "name": "Carlotto",
        "address": "100 E 19th St New York, NY 10003",
        "coordinates": {
            "latitude": 40.7375,
            "longitude": -73.98782
        },
        "numReviews": 126,
        "rating": 4.4,
        "zipCode": "10003",
        "insertedAtTimestamp": "2026-02-14T03:29:42.008811"
    },
    {
        "businessId": "MphfKkYFEe0BDQ6hZ0A5fA",
        "name": "Gelso & Grand",
        "address": "186 Grand St New York, NY 10013",
        "coordinates": {
            "latitude": 40.71958,
            "longitude": -73.99734
        },
        "numReviews": 1665,
        "rating": 4.3,
        "zipCode": "10013",
        "insertedAtTimestamp": "2026-02-14T03:29:42.008811"
    },
    {
        "businessId": "Sp-vnk-waTvKblG_88M4TA",
        "name": "Trapizzino",
        "address": "144 Orchard St New York, NY 10002",
        "coordinates": {
            "latitude": 40.72043,
            "longitude": -73.98894
        },
        "numReviews": 377,
        "rating": 4.4,
        "zipCode": "10002",
        "insertedAtTimestamp": "2026-02-14T03:29:42.008811"
    },
    {
        "businessId": "VmdyRRMtUXOWV7F7w0ImwQ",
        "name": "Piccola Cucina Uptown",
        "address": "106 E 60th St New York, NY 10022",
        "coordinates": {
            "latitude": 40.763174,
            "longitude": -73.969046
        },
        "numReviews": 608,
        "rating": 4.4,
        "zipCode": "10022",
        "insertedAtTimestamp": "2026-02-14T03:29:42.008811"
    },
    {
        "businessId": "OWNmOq-TAsHjGcYdCVclSw",
        "name": "Osteria La Baia",
        "address": "129 W 52nd St New York, NY 10019",
        "coordinates": {
            "latitude": 40.76189587672743,
            "longitude": -73.9806749
        },
        "numReviews": 248,
        "rating": 4.3,
        "zipCode": "10019",
        "insertedAtTimestamp": "2026-02-14T03:29:42.008811"
    },
    {
        "businessId": "Z-QmxQZAJEy5GXqA82Bemw",
        "name": "Da Toscano",
        "address": "24 Minetta Ln New York, NY 10012",
        "coordinates": {
            "latitude": 40.730508,
            "longitude": -74.001238
        },
        "numReviews": 241,
        "rating": 4.6,
        "zipCode": "10012",
        "insertedAtTimestamp": "2026-02-14T03:29:42.008811"
    },
    {
        "businessId": "DoSU8IPq-Py_YV3kYmXPfQ",
        "name": "Trattoria Trecolori",
        "address": "254 West 47th St New York, NY 10036",
        "coordinates": {
            "latitude": 40.759876,
            "longitude": -73.986767
        },
        "numReviews": 2936,
        "rating": 4.1,
        "zipCode": "10036",
        "insertedAtTimestamp": "2026-02-14T03:29:42.008811"
    },
    {
        "businessId": "V-FCEicobl5Su-R7EVJQNA",
        "name": "La Lanterna Di Vittorio",
        "address": "129 MacDougal St New York, NY 10012",
        "coordinates": {
            "latitude": 40.73069,
            "longitude": -74.00015
        },
        "numReviews": 1816,
        "rating": 4.2,
        "zipCode": "10012",
        "insertedAtTimestamp": "2026-02-14T03:29:42.008811"
    },
    {
        "businessId": "rFeNJtqgMWf2tWy-RB6jgg",
        "name": "Torrisi",
        "address": "275 Mulberry St New York, NY 10012",
        "coordinates": {
            "latitude": 40.72428598821748,
            "longitude": -73.9954023
        },
        "numReviews": 413,
        "rating": 4.5,
        "zipCode": "10012",
        "insertedAtTimestamp": "2026-02-14T03:29:42.008811"
    },
    {
        "businessId": "f8ipr8Wdy1_wHhw7JgNqPQ",
        "name": "Da Claudio",
        "address": "21 Ann St New York, NY 10038",
        "coordinates": {
            "latitude": 40.71087,
            "longitude": -74.00753
        },
        "numReviews": 731,
        "rating": 4.3,
        "zipCode": "10038",
        "insertedAtTimestamp": "2026-02-14T03:29:42.008811"
    },
    {
        "businessId": "a4WZUTKn90dOkeY38JHNjQ",
        "name": "Aurora",
        "address": "70 Grand St Brooklyn, NY 11249",
        "coordinates": {
            "latitude": 40.71565949513071,
            "longitude": -73.96474490331111
        },
        "numReviews": 925,
        "rating": 4.0,
        "zipCode": "11249",
        "insertedAtTimestamp": "2026-02-14T03:29:42.008811"
    },
    {
        "businessId": "DGhWO1sUWydVeR5j5ZZaMw",
        "name": "La Grande Boucherie",
        "address": "145 W 53rd St New York, NY 10019",
        "coordinates": {
            "latitude": 40.7626274,
            "longitude": -73.98084109999999
        },
        "numReviews": 4365,
        "rating": 4.5,
        "zipCode": "10019",
        "insertedAtTimestamp": "2026-02-14T03:29:42.008811"
    },
    {
        "businessId": "7_hGsGEkHrjgAiYVjrCFnw",
        "name": "Carbone",
        "address": "181 Thompson St New York, NY 10012",
        "coordinates": {
            "latitude": 40.72800126711089,
            "longitude": -74.00024274442806
        },
        "numReviews": 2073,
        "rating": 4.0,
        "zipCode": "10012",
        "insertedAtTimestamp": "2026-02-14T03:29:42.008811"
    },
    {
        "businessId": "kr5fRwdHtVwPPwSJxm9Fkg",
        "name": "Il Posto Accanto",
        "address": "190 E 2nd St New York, NY 10009",
        "coordinates": {
            "latitude": 40.72238,
            "longitude": -73.98403
        },
        "numReviews": 373,
        "rating": 4.3,
        "zipCode": "10009",
        "insertedAtTimestamp": "2026-02-14T03:29:42.008811"
    },
    {
        "businessId": "faukkggAc_tuJ4THYlf4fg",
        "name": "La Masseria",
        "address": "235 W 48th St New York, NY 10036",
        "coordinates": {
            "latitude": 40.760868632784,
            "longitude": -73.986348802868
        },
        "numReviews": 841,
        "rating": 4.1,
        "zipCode": "10036",
        "insertedAtTimestamp": "2026-02-14T03:29:42.008811"
    },
    {
        "businessId": "LkV96_buOU_n0br4SBO57w",
        "name": "Ci Siamo",
        "address": "440 West 33rd St Ste 100 New York, NY 10001",
        "coordinates": {
            "latitude": 40.75240549384363,
            "longitude": -73.9982864846782
        },
        "numReviews": 795,
        "rating": 4.4,
        "zipCode": "10001",
        "insertedAtTimestamp": "2026-02-14T03:29:42.008811"
    },
    {
        "businessId": "JLpEKUYAtzBRQwsUL3RPIA",
        "name": "Il Corso",
        "address": "54 W 55th St New York, NY 10019",
        "coordinates": {
            "latitude": 40.762441,
            "longitude": -73.977206
        },
        "numReviews": 546,
        "rating": 4.3,
        "zipCode": "10019",
        "insertedAtTimestamp": "2026-02-14T03:29:42.008811"
    },
    {
        "businessId": "5F9kZPnAleDYqCeCyvGJPA",
        "name": "Bad Roman",
        "address": "10 Columbus Cir New York, NY 10019",
        "coordinates": {
            "latitude": 40.768494,
            "longitude": -73.983072
        },
        "numReviews": 928,
        "rating": 4.1,
        "zipCode": "10019",
        "insertedAtTimestamp": "2026-02-14T03:29:42.008811"
    },
    {
        "businessId": "2--mg-3NB4fci7tEjTptCg",
        "name": "La Piazza",
        "address": "20 E 49th St New York, NY 10017",
        "coordinates": {
            "latitude": 40.75728642052242,
            "longitude": -73.97663105889605
        },
        "numReviews": 48,
        "rating": 4.6,
        "zipCode": "10017",
        "insertedAtTimestamp": "2026-02-14T03:29:42.008811"
    },
    {
        "businessId": "dh5r9-SbN8xJ76XvnayWLQ",
        "name": "Giano Restaurant",
        "address": "126 E 7th St New York, NY 10009",
        "coordinates": {
            "latitude": 40.7262256596862,
            "longitude": -73.9840574049125
        },
        "numReviews": 761,
        "rating": 4.3,
        "zipCode": "10009",
        "insertedAtTimestamp": "2026-02-14T03:29:42.008811"
    },
    {
        "businessId": "CIzl1SAhtNUGEkLgvTB9zQ",
        "name": "Rosemary's -  Midtown",
        "address": "825 Third Ave New York, NY 10022",
        "coordinates": {
            "latitude": 40.75588334611095,
            "longitude": -73.97014955612765
        },
        "numReviews": 161,
        "rating": 4.1,
        "zipCode": "10022",
        "insertedAtTimestamp": "2026-02-14T03:29:42.008811"
    },
    {
        "businessId": "RXCCofQw1EjTcSN0ZeXfRA",
        "name": "Risotteria Melotti NYC",
        "address": "309 E 5th St New York, NY 10003",
        "coordinates": {
            "latitude": 40.726673363853,
            "longitude": -73.9880919456482
        },
        "numReviews": 447,
        "rating": 4.4,
        "zipCode": "10003",
        "insertedAtTimestamp": "2026-02-14T03:29:42.008811"
    },
    {
        "businessId": "Vs8kQ4R381y27AH018gLpg",
        "name": "Supper",
        "address": "156 E 2nd St New York, NY 10009",
        "coordinates": {
            "latitude": 40.72290786539601,
            "longitude": -73.98520720537888
        },
        "numReviews": 1564,
        "rating": 3.9,
        "zipCode": "10009",
        "insertedAtTimestamp": "2026-02-14T03:29:42.008811"
    },
    {
        "businessId": "Tkid3kovRVJ6vmK7XAFHKA",
        "name": "Audace",
        "address": "365 Park Ave S New York, NY 10016",
        "coordinates": {
            "latitude": 40.74210325647685,
            "longitude": -73.98461379999999
        },
        "numReviews": 38,
        "rating": 4.7,
        "zipCode": "10016",
        "insertedAtTimestamp": "2026-02-14T03:29:42.008811"
    },
    {
        "businessId": "-Gc5sTFxoXM3Tiv_dkSJZg",
        "name": "Cecconi's Dumbo",
        "address": "55 Water St Brooklyn, NY 11201",
        "coordinates": {
            "latitude": 40.703851696718694,
            "longitude": -73.99146477492025
        },
        "numReviews": 1275,
        "rating": 3.5,
        "zipCode": "11201",
        "insertedAtTimestamp": "2026-02-14T03:29:42.008811"
    },
    {
        "businessId": "yJF0VCK0ctftWqSmG93DZA",
        "name": "Alessa Cucina & Bar",
        "address": "237 W 35th St Ste B New York, NY 10001",
        "coordinates": {
            "latitude": 40.752414070599656,
            "longitude": -73.99133599999999
        },
        "numReviews": 85,
        "rating": 4.6,
        "zipCode": "10001",
        "insertedAtTimestamp": "2026-02-14T03:29:42.008811"
    },
    {
        "businessId": "QObHX0yR6zd0WfksRDbJTA",
        "name": "Becco",
        "address": "355 W 46th St New York, NY 10036",
        "coordinates": {
            "latitude": 40.76073,
            "longitude": -73.98989
        },
        "numReviews": 3405,
        "rating": 3.7,
        "zipCode": "10036",
        "insertedAtTimestamp": "2026-02-14T03:29:42.008811"
    },
    {
        "businessId": "l7OsDvMOO3ji3fg0nT0QzA",
        "name": "Tony's Di Napoli",
        "address": "1081 3rd Ave New York, NY 10065",
        "coordinates": {
            "latitude": 40.7643855741476,
            "longitude": -73.96426247506157
        },
        "numReviews": 980,
        "rating": 4.0,
        "zipCode": "10065",
        "insertedAtTimestamp": "2026-02-14T03:29:42.008811"
    },
    {
        "businessId": "q3_FgDWWuXcVGiNuo_OPBQ",
        "name": "Fiaschetteria Pistoia",
        "address": "647 E 11th St New York, NY 10009",
        "coordinates": {
            "latitude": 40.72666,
            "longitude": -73.9773
        },
        "numReviews": 411,
        "rating": 4.3,
        "zipCode": "10009",
        "insertedAtTimestamp": "2026-02-14T03:29:42.008811"
    },
    {
        "businessId": "s5nPO911cYB2chdwqSqT9g",
        "name": "La Nonna Ristorante & Bar",
        "address": "184 Kent Ave Brooklyn, NY 11249",
        "coordinates": {
            "latitude": 40.71848683628801,
            "longitude": -73.96404187764361
        },
        "numReviews": 500,
        "rating": 4.1,
        "zipCode": "11249",
        "insertedAtTimestamp": "2026-02-14T03:29:42.008811"
    },
    {
        "businessId": "J0OeDwmh5JBhid0A5GvltA",
        "name": "Il Corallo Trattoria",
        "address": "176 Prince St New York, NY 10012",
        "coordinates": {
            "latitude": 40.7262073,
            "longitude": -74.0018919
        },
        "numReviews": 1215,
        "rating": 4.1,
        "zipCode": "10012",
        "insertedAtTimestamp": "2026-02-14T03:29:42.008811"
    },
    {
        "businessId": "dc3hkLkAqCSxDWQzrx-g9A",
        "name": "Quality Italian",
        "address": "57 W 57th St New York, NY 10019",
        "coordinates": {
            "latitude": 40.76449,
            "longitude": -73.976705
        },
        "numReviews": 1658,
        "rating": 4.0,
        "zipCode": "10019",
        "insertedAtTimestamp": "2026-02-14T03:29:42.008811"
    },
    {
        "businessId": "IErfGS0DASSJfYU73m0Sqg",
        "name": "Malatesta Trattoria",
        "address": "649 Washington St New York, NY 10014",
        "coordinates": {
            "latitude": 40.73284,
            "longitude": -74.00838
        },
        "numReviews": 1404,
        "rating": 4.1,
        "zipCode": "10014",
        "insertedAtTimestamp": "2026-02-14T03:29:42.008811"
    },
    {
        "businessId": "qgY41g_eg0eNzewCXmKcaA",
        "name": "Lillo Cucina Italiana",
        "address": "331 Henry St Brooklyn, NY 11201",
        "coordinates": {
            "latitude": 40.69019,
            "longitude": -73.996208
        },
        "numReviews": 254,
        "rating": 4.7,
        "zipCode": "11201",
        "insertedAtTimestamp": "2026-02-14T03:29:42.008811"
    },
    {
        "businessId": "Qro_lPPQZ9_cehKG7MIi7g",
        "name": "Osteria Nonnino",
        "address": "637 Hudson St New York, NY 10014",
        "coordinates": {
            "latitude": 40.73888,
            "longitude": -74.00574
        },
        "numReviews": 224,
        "rating": 4.3,
        "zipCode": "10014",
        "insertedAtTimestamp": "2026-02-14T03:29:42.008811"
    },
    {
        "businessId": "32WerL8Y97eDpHQqoRh6CA",
        "name": "Sempre Oggi",
        "address": "164 W 75th St New York, NY 10023",
        "coordinates": {
            "latitude": 40.7802763,
            "longitude": -73.97988939999999
        },